"School Name","DBN","Budget","Total Enrollment","Budget Per Student","School Type","School Category","Street Address","City","State","Zip Code","Borough","Latitude","Longitude","Coordinates","Report Type","Report Grade","Number of Students in Cohort","Percent of Graduation Students in Cohort","Percent of Cohort Who Took Regents","Percent of Graduates Who Took Regents","Percent of Cohort Who Took Advanced Regents","Percent of Graduates Who Took Advanced Regents","Percent of Cohort Who Took Regents Without Advanced","Percent of Graduates Who Took Regents Without Advanced","Percent of Cohort Who Are Still Enrolled","Percent of Cohort Who Dropped Out","ELA Mean Scale Score","Percent of Students Scoring Level 1 in ELA","Percent of Students Scoring Level 2 in ELA","Percent of Students Scoring Level 3 in ELA","Percent of Students Scoring Level 4 in ELA","Math Mean Scale Score","Percent of Students Scoring Level 1 in Math","Percent of Students Scoring Level 2 in Math","Percent of Students Scoring Level 3 in Math","Percent of Students Scoring Level 4 in Math"
"47 The American Sign Language and English Secondary School","M047","2914478","157","18563.5541","Special Education","Secondary School","223 EAST 23 STREET","MANHATTAN","NY","10010","M","40.73825420000000","-73.98176130000000","[-73.9817613,40.7382542]","EMS","None","24","38","17","44","0","0","17","44","38","13",,,,,,,,,,
"A. Philip Randolph Campus High School","M540","9641584","1473","6545.5424","General Academic","High School","443 WEST 135 STREET","MANHATTAN","NY","10031","M","40.81840780000000","-73.95083830000000","[-73.9508383,40.8184078]",,,"228","86","86","100","31","36","56","65","11","1",,,,,,,,,,
"Abraham Lincoln High School","K410","16024031","2533","6326.1078","General Academic","High School","2800 OCEAN PARKWAY","BROOKLYN","NY","11235","K","40.58261000000000","-73.96872300000000","[-73.968723,40.58261]",,,"639","58","47","81","18","30","29","50","26","12",,,,,,,,,,
"Academy for Careers in Television and Film","Q301","1834000","219","8374.4292","Career Technical","High School","1-50 51st Avenue","NEW YORK","NY","11101","Q","40.74245100000000","-73.95655870000000","[-73.9565587,40.742451]",,,,,,,,,,,,,,,,,,,,,,
"Academy for College Preparation and Career Exploration: A College Board School","K382","4291105","599","7163.7813","General Academic","Secondary School","911 FLATBUSH AVENUE","BROOKLYN","NY","11226","K","40.64954100000000","-73.95850070000000","[-73.9585007,40.649541]","EMS","D","1","0","0","0","0","0","0","0","0","0","2.200","10","61","28","1","2.323","11","54","25","9"
"Academy for Conservation and the Environment","K637","1339043","130","10300.3308","General Academic","High School","6565 FLATLANDS AVENUE","BROOKLYN","NY","11236","K","40.63314200000000","-73.91707199999999","[-73.91707199999999,40.633142]",,,,,,,,,,,,,,,,,,,,,,
"Academy for Environmental Leadership","K403","3398532","372","9135.8387","General Academic","High School","400 IRVING AVENUE","BROOKLYN","NY","11237","K","40.69698250000000","-73.91082250000000","[-73.9108225,40.6969825]",,,"6","0","0","0","0","0","0","0","0","0",,,,,,,,,,
"Academy for Language and Technology","X365","2500099","302","8278.4735","General Academic","High School","1700 MACOMBS ROAD","BRONX","NY","10453","X","40.84972350000000","-73.91575689999999","[-73.91575689999999,40.8497235]",,,,,,,,,,,,,,,,,,,,,,
"Academy for New Americans","Q235","1756090","163","10773.5583","General Academic","Intermediate","30-14 30 STREET","QUEENS","NY","11102","Q","40.76738599999999","-73.92226550000000","[-73.9222655,40.76738599999999]","EMS","A",,,,,,,,,,,"1.370","74","17","7","2","2.010","31","42","20","6"
"Academy for Scholarship and Entrepreneurship: A College Board School","X270","4892269","623","7852.7592","General Academic","Secondary School","921 EAST 228TH STREET","BRONX","NY","10466","X","40.88776580000000","-73.85249290000000","[-73.8524929,40.8877658]","EMS","C","71","59","31","52","4","7","27","45","30","10","2.040","22","50","26","0","1.969","24","56","15","3"
"Academy for Social Action: A College Board School","M367","3408907","397","8586.6675","General Academic","Secondary School","509 WEST 129 STREET","MANHATTAN","NY","10027","M","40.81509280000000","-73.95496410000000","[-73.9549641,40.8150928]","EMS","B",,,,,,,,,,,"2.060","15","64","19","1","2.212","13","56","26","4"
"Academy for Young Writers","K404","2517988","375","6714.6347","General Academic","High School","1065 ELTON STREET","BROOKLYN","NY","11208","K","40.65755760000000","-73.87475930000000","[-73.8747593,40.6575576]",,,"2","0","0","0","0","0","0","0","0","0",,,,,,,,,,
"Academy of American Studies","Q575","3917118","706","5548.3258","General Academic","High School","28-04 41 AVENUE","QUEENS","NY","11101","Q","40.75133020000000","-73.93745090000000","[-73.9374509,40.7513302]",,,"118","77","75","98","36","47","39","51","18","2",,,,,,,,,,
"Academy of Applied Mathematics and Technology","X343","2280772","235","9705.4128","General Academic","Intermediate","345 BROOK AVENUE","BRONX","NY","10454","X","40.80990780000000","-73.91805590000000","[-73.9180559,40.8099078]","EMS","A",,,,,,,,,,,"1.918","22","62","14","0","2.484","10","42","36","11"
"Academy of Arts and Letters","K492","1933304","291","6643.6564","General Academic","Intermediate","225 ADELPHI STREET","BROOKLYN","NY","11205","K","40.69133480000000","-73.97126000000000","[-73.97126,40.6913348]","EMS","B",,,,,,,,,,,"2.515","4","43","49","3","2.575","8","40","37","14"
"Academy of Environmental Science Secondary High School","M635","3746039","437","8572.1716","General Academic","Secondary School","410 EAST 100 STREET","MANHATTAN","NY","10029","M","40.78509200000001","-73.94214699999999","[-73.94214699999999,40.78509200000001]","EMS","None","85","49","20","41","1","2","19","38","35","12",,,,,,,,,,
"Academy of Finance and Enterprise","Q264","2616611","397","6590.9597","General Academic","High School","30-20 THOMSON AVENUE","QUEENS","NY","11101","Q","40.74492380000000","-73.93693100000002","[-73.93693100000002,40.7449238]",,,"84","87","83","96","32","37","51","59","11","2",,,,,,,,,,
"Academy of Hospitality and Tourism","K408","2594489","314","8262.7038","General Academic","High School","911 FLATBUSH AVENUE","BROOKLYN","NY","11226","K","40.64954100000000","-73.95850070000000","[-73.9585007,40.649541]",,,"3","0","0","0","0","0","0","0","0","0",,,,,,,,,,
"Academy of Innovative Technology","K618","1940715","206","9420.9466","Career Technical","High School","999 JAMAICA AVENUE","BROOKLYN","NY","11208","K","40.69228000000000","-73.86892700000000","[-73.868927,40.69228]",,,,,,,,,,,,,,,,,,,,,,
"Academy of Medical Technology: A College Board School","Q309","1767825","252","7015.1786","General Academic","Secondary School","8-21 BAY 25 STREET","QUEENS","NY","11691","Q","40.60153200000000","-73.76397899999999","[-73.76397899999999,40.601532]","EMS","D",,,,,,,,,,,"2.060","21","52","25","1","2.357","14","45","29","10"
"Academy of Public Relations","X298","2663550","225","11838.0000","General Academic","Intermediate","778 FOREST AVENUE","BRONX","NY","10456","X","40.81889930000000","-73.90587070000000","[-73.9058707,40.8188993]","EMS","A",,,,,,,,,,,"1.878","30","52","16","1","2.071","24","50","17","7"
"Academy of Urban Planning","K552","3925379","469","8369.6780","General Academic","High School","400 IRVING AVENUE","BROOKLYN","NY","11237","K","40.69698250000000","-73.91082250000000","[-73.9108225,40.6969825]",,,"106","59","23","38","1","2","22","37","26","12",,,,,,,,,,
"Accion Academy","X341","1712886","183","9360.0328","General Academic","Intermediate","1825 PROSPECT AVENUE","BRONX","NY","10457","X","40.84232230000000","-73.89099430000000","[-73.8909943,40.8423223]","EMS","A",,,,,,,,,,,"1.918","22","62","14","0","2.050","19","58","20","2"
"ACORN Community High School","K499","5491047","696","7889.4353","General Academic","High School","561 GRAND AVENUE","BROOKLYN","NY","11238","K","40.67856900000000","-73.96161800000000","[-73.961618,40.678569]",,,"172","62","47","76","7","11","40","65","24","8",,,,,,,,,,
"Albert Shanker School for Visual and Performing Arts","Q126","5855404","625","9368.6464","General Academic","Intermediate","31-51 21 STREET","QUEENS","NY","11106","Q","40.76630830000000","-73.93064550000000","[-73.9306455,40.7663083]","EMS","C",,,,,,,,,,,"1.989","24","53","21","1","2.173","19","50","22","7"
"Alfred E. Smith Career and Technical Education High School","X600","10221296","1096","9326.0000","Career Technical","High School","333 EAST 151 STREET","BRONX","NY","10451","X","40.81820260000000","-73.91967600000000","[-73.919676,40.8182026]",,,"271","42","26","62","19","44","8","18","26","26",,,,,,,,,,
"All City Leadership Secondary School","K554","2047259","251","8156.4104","General Academic","Secondary School","321 Palmetto Street","NEW YORK","NY","11237","K","40.69744439999999","-73.91310519999999","[-73.91310519999999,40.69744439999999]","EMS","C","46","80","50","62","9","11","41","51","20","0","2.707","2","32","58","7","2.949","0","27","50","22"
"Amistad Dual Language School","M311","3567806","433","8239.7367","General Academic","K-8","4862 BROADWAY","MANHATTAN","NY","10034","M","40.86682090000001","-73.92368060000000","[-73.9236806,40.86682090000001]","EMS","A",,,,,,,,,,,"2.535","6","39","49","5","2.898","2","28","46","22"
"Ampark Neighborhood","X344","1021983","130","7861.4077","General Academic","Elementary","3961 HILLMAN AVENUE","BRONX","NY","10463","X","40.88302190000000","-73.89167200000000","[-73.891672,40.8830219]","EMS","None",,,,,,,,,,,"2.666","2","45","36","16","3.000","4","25","38","33"
"Andries Hudde","K240","8701136","1160","7500.9793","General Academic","Intermediate","2500 NOSTRAND AVENUE","BROOKLYN","NY","11210","K","40.62371160000000","-73.94631880000000","[-73.9463188,40.6237116]","EMS","B",,,,,,,,,,,"2.306","13","46","35","4","2.636","9","38","32","20"
"Antonia Pantoja Preparatory Academy: A College Board School","X376","2264067","284","7972.0669","General Academic","Intermediate","1980 LAFAYETTE AVENUE","BRONX","NY","10473","X","40.82232550000000","-73.85595690000000","[-73.8559569,40.8223255]","EMS","C",,,,,,,,,,,"2.151","14","57","27","1","2.404","13","45","29","12"
"Archimedes Academy for Math, Science and Technology Applications","X367","3071628","307","10005.3029","General Academic","Intermediate","456 WHITE PLAINS ROAD","BRONX","NY","10473","X","40.81500490000000","-73.85631149999999","[-73.85631149999999,40.8150049]","EMS","C",,,,,,,,,,,"2.050","17","61","20","1","2.030","24","51","19","4"
"Art and Design High School","M630","9262040","1387","6677.7505","Career Technical","High School","231-249 EAST 56 STREET","MANHATTAN","NY","10019","M","40.76580580000000","-73.98274870000000","[-73.9827487,40.7658058]",,,"307","65","52","79","6","9","46","71","28","4",,,,,,,,,,
"Arts & Media Preparatory Academy","K589","1853444","208","8910.7885","General Academic","High School","905 WINTHROP STREET","BROOKLYN","NY","11203","K","40.65843380000000","-73.92911010000000","[-73.9291101,40.6584338]",,,,,,,,,,,,,,,,,,,,,,
"Aspirations Diploma Plus High School","K646","2251083","272","8276.0404","Transfer School","High School","1495 HERKIMER STREET","BROOKLYN","NY","11233","K","40.67750700000000","-73.90415000000000","[-73.90415,40.677507]","HST","F","53","6","4","67","0","0","4","67","85","8",,,,,,,,,,
"Aspire Preparatory Middle School","X322","3967256","554","7161.1119","General Academic","Intermediate","2441 WALLACE AVENUE","BRONX","NY","10467","X","40.86206019999999","-73.86458840000000","[-73.8645884,40.86206019999999]","EMS","C",,,,,,,,,,,"2.141","16","55","26","2","2.404","16","42","26","15"
"Astor Collegiate Academy","X299","3450807","471","7326.5541","General Academic","High School","925 ASTOR AVENUE","BRONX","NY","10469","X","40.85964000000000","-73.86074280000000","[-73.8607428,40.85964]",,,"95","74","36","49","4","6","32","43","21","4",,,,,,,,,,
"August Martin High School","Q400","9796683","1222","8016.9255","General Academic","High School","156-10 BAISLEY BOULEVARD","QUEENS","NY","11434","Q","40.67489260000000","-73.78317810000000","[-73.7831781,40.6748926]",,,"388","48","21","43","1","2","20","41","24","22",,,,,,,,,,
"Automotive High School","K610","8387132","982","8540.8676","Career Technical","High School","50 BEDFORD AVENUE","BROOKLYN","NY","11222","K","40.72224860000000","-73.95328190000000","[-73.9532819,40.7222486]",,,"215","54","24","44","0","0","24","44","27","12",,,,,,,,,,
"Aviation Career & Technical Education High School","Q610","14555169","2097","6940.9485","Career Technical","High School","45-30 36 STREET","QUEENS","NY","11101","Q","40.74413620000000","-73.92930330000000","[-73.9293033,40.7441362]",,,"459","62","56","90","23","37","33","53","36","2",,,,,,,,,,
"Baccalaureate School for Global Education","Q580","3052964","424","7200.3868","General Academic","Secondary School","34-12 36 AVENUE","QUEENS","NY","11106","Q","40.75504300000000","-73.92674400000000","[-73.926744,40.755043]","EMS","B","65","99","95","97","35","36","60","61","2","0","3.323","0","5","57","37","3.510","0","3","43","54"
"Ballet Tech, NYC Public School for Dance","M442","1170767","144","8130.3264","General Academic","K-12","890 BROADWAY","MANHATTAN","NY","10003","M","40.73841400000000","-73.98940200000000","[-73.989402,40.738414]","EMS","C","3","0","0","0","0","0","0","0","0","0","2.704","4","31","53","10","3.242","1","15","42","41"
"Banana Kelly High School","X530","4078497","464","8789.8642","General Academic","High School","965 LONGWOOD AVENUE","BRONX","NY","10459","X","40.81757310000000","-73.89800389999999","[-73.89800389999999,40.8175731]",,,"114","52","29","56","0","0","29","56","30","12",,,,,,,,,,
"Bard High School Early College","M696","3876290","584","6637.4829","General Academic","High School","525 EAST HOUSTON STREET","MANHATTAN","NY","10002","M","40.71746070000000","-73.97658530000000","[-73.9765853,40.7174607]",,,"115","93","93","100","0","0","93","100","6","1",,,,,,,,,,
"Bard High School Early College Queens","Q299","2947056","456","6462.8421","General Academic","High School","30-20 THOMSON AVENUE","QUEENS","NY","11101","Q","40.74492380000000","-73.93693100000002","[-73.93693100000002,40.7449238]",,,"3","0","0","0","0","0","0","0","0","0",,,,,,,,,,
"Baruch College Campus High School","M411","2263497","440","5144.3114","General Academic","High School","55 EAST 25 STREET","MANHATTAN","NY","10010","M","40.74165210000000","-73.98586610000001","[-73.98586610000001,40.7416521]",,,"96","100","98","98","57","57","41","41","0","0",,,,,,,,,,
"BATTERY PARK CITY SCHOOL","M276","772277","51","15142.6863","General Academic","K-8","55 BATTERY PLACE","MANHATTAN","NY","10001","M","40.70726010000000","-74.01680410000000","[-74.0168041,40.7072601]",,,,,,,,,,,,,,,,,,,,,,
"BAYCHESTER ACADEMY","X169","1619665","148","10943.6824","General Academic","Early Childhood","3500 EDSON AVENUE","BRONX","NY","10466","X","40.88096040000000","-73.83964270000000","[-73.8396427,40.8809604]",,,,,,,,,,,,,,,,,,,,,,
"Bayside High School","Q495","18421301","3575","5152.8115","General Academic","High School","32-24 CORPORAL KENNEDY STREET","QUEENS","NY","11361","Q","40.77110100000000","-73.78021000000000","[-73.78021,40.771101]",,,"1085","79","76","97","53","68","23","29","14","5",,,,,,,,,,
"Beach Channel High School","Q410","10042623","1319","7613.8158","General Academic","High School","100-00 BEACH CHANNEL DRIVE","QUEENS","NY","11694","Q","40.58555339999999","-73.82310249999999","[-73.82310249999999,40.58555339999999]",,,"427","45","36","79","1","3","34","76","27","19",,,,,,,,,,
"Beacon High School","M479","5543607","1144","4845.8103","General Academic","High School","227-243 WEST 61ST STREET","MANHATTAN","NY","10023","M","40.77260600000000","-73.98832000000000","[-73.98832,40.772606]",,,"246","95","81","85","0","0","81","85","3","0",,,,,,,,,,
"Bedford Academy High School","K595","2620837","342","7663.2661","General Academic","High School","1119 BEDFORD AVENUE","BROOKLYN","NY","11216","K","40.68536100000000","-73.95421300000000","[-73.954213,40.685361]",,,"77","95","92","97","71","75","21","22","5","0",,,,,,,,,,
"Bedford Stuyvesant Preparatory High School","K575","1585585","112","14157.0089","Transfer School","High School","832 MARCY AVENUE","BROOKLYN","NY","11216","K","40.68507420000000","-73.94717580000000","[-73.9471758,40.6850742]","HST","B","52","37","23","63","0","0","23","63","54","8",,,,,,,,,,
"BELL Academy","Q294","2284017","313","7297.1789","General Academic","Intermediate","18-25 212 STREET","QUEENS","NY","11360","Q","40.78234590000000","-73.77844000000000","[-73.77844,40.7823459]","EMS","A",,,,,,,,,,,"2.724","5","28","54","11","3.242","3","14","38","44"
"Belmont Preparatory High School","X434","4214439","413","10204.4528","General Academic","High School","500 EAST FORDHAM ROAD","BRONX","NY","10458","X","40.85970190000000","-73.88758890000000","[-73.8875889,40.8597019]",,,"96","55","49","89","8","15","41","74","32","10",,,,,,,,,,
"Benjamin Banneker Academy","K670","4733380","829","5709.7467","General Academic","High School","71-77 CLINTON AVENUE","BROOKLYN","NY","11205","K","40.69536799999999","-73.96873400000000","[-73.968734,40.69536799999999]",,,"246","95","94","98","54","57","39","42","3","1",,,,,,,,,,
"Benjamin N. Cardozo High School","Q415","21089509","4018","5248.7578","General Academic","High School","57-00 223RD STREET","QUEENS","NY","11364","Q","40.75182840000000","-73.75598370000002","[-73.75598370000002,40.7518284]",,,"1013","77","69","90","38","49","32","41","15","5",,,,,,,,,,
"Boys and Girls High School","K455","17429686","2293","7601.2586","General Academic","High School","1700 FULTON STREET","BROOKLYN","NY","11213","K","40.67847200000000","-73.93159790000000","[-73.9315979,40.678472]",,,"815","37","25","67","2","5","23","62","42","12",,,,,,,,,,
"Bread & Roses Integrated Arts High School","M685","4056448","512","7922.7500","General Academic","High School","6 EDGECOMBE AVENUE","MANHATTAN","NY","10030","M","40.81754620000000","-73.94756300000000","[-73.947563,40.8175462]",,,"135","57","45","79","2","4","43","75","30","10",,,,,,,,,,
"Brighter Choice Community School","K627","1034651","110","9405.9182","General Academic","Elementary","280 HART STREET","BROOKLYN","NY","11206","K","40.69365300000000","-73.94130899999999","[-73.94130899999999,40.693653]","EC","D",,,,,,,,,,,"1.909","30","52","13","4","2.204","16","54","20","8"
"Bronx Academy of Health Careers","X290","3426845","467","7337.9979","General Academic","High School","800 EAST GUN HILL ROAD","BRONX","NY","10467","X","40.87516300000000","-73.86165299999999","[-73.86165299999999,40.875163]",,,"105","63","49","77","6","9","43","68","19","14",,,,,,,,,,
"Bronx Aerospace High School","X545","3672998","403","9114.1390","General Academic","High School","800 EAST GUN HILL ROAD","BRONX","NY","10467","X","40.87516300000000","-73.86165299999999","[-73.86165299999999,40.875163]",,,"83","92","36","40","0","0","36","40","6","2",,,,,,,,,,
"BRONX CAREER AND COLLEGE PREPARATORY HIGH SCHOOL","X479","1015471","84","12088.9405","General Academic","High School","800 HOME STREET","BRONX","NY","10456","X","40.82691600000000","-73.90059699999999","[-73.90059699999999,40.826916]",,,,,,,,,,,,,,,,,,,,,,
"Bronx Center for Science and Mathematics","X260","3002349","430","6982.2070","General Academic","High School","1363 FULTON AVENUE","BRONX","NY","10456","X","40.83387500000001","-73.90281800000000","[-73.902818,40.83387500000001]",,,"93","79","72","92","28","36","44","56","20","0",,,,,,,,,,
"Bronx Collegiate Academy","X227","3417625","391","8740.7289","General Academic","High School","240 EAST 172 STREET","BRONX","NY","10457","X","40.83929500000000","-73.91138400000000","[-73.911384,40.839295]",,,"94","50","21","43","0","0","21","43","36","12",,,,,,,,,,
"Bronx Community High School","X377","1880464","190","9897.1789","Transfer School","High School","1980 LAFAYETTE AVENUE","BRONX","NY","10473","X","40.82232550000000","-73.85595690000000","[-73.8559569,40.8223255]","HST","C","98","5","2","40","0","0","2","40","79","13",,,,,,,,,,
"Bronx Dance Academy School","X308","2442363","277","8817.1949","General Academic","Intermediate","3617 BAINBRIDGE AVENUE","BRONX","NY","10467","X","40.88541200000000","-73.87804700000000","[-73.878047,40.885412]","EMS","B",,,,,,,,,,,"2.101","12","65","22","0","2.285","12","55","22","9"
"Bronx Early College Academy for Teaching & Learning","X324","1994238","265","7525.4264","General Academic","Intermediate","250 EAST 164 STREET","BRONX","NY","10456","X","40.82835360000000","-73.91724190000000","[-73.9172419,40.8283536]","EMS","B",,,,,,,,,,,"2.252","12","52","33","2","2.469","10","41","38","9"
"Bronx Engineering and Technology Academy","X213","3321186","404","8220.7574","General Academic","High School","99 TERRACE VIEW AVENUE","BRONX","NY","10463","X","40.87706970000000","-73.91261690000000","[-73.9126169,40.8770697]",,,"76","75","57","75","29","39","28","37","8","12",,,,,,,,,,
"Bronx Green Middle School","X326","3331928","424","7858.3208","General Academic","Intermediate","2441 WALLACE AVENUE","BRONX","NY","10467","X","40.86206019999999","-73.86458840000000","[-73.8645884,40.86206019999999]","EMS","C",,,,,,,,,,,"2.000","19","61","17","1","2.141","17","55","23","4"
"Bronx Guild","X452","3252850","320","10165.1563","General Academic","High School","1980 LAFAYETTE AVENUE","BRONX","NY","10473","X","40.82232550000000","-73.85595690000000","[-73.8559569,40.8223255]",,,"43","54","7","13","0","0","7","13","23","16",,,,,,,,,,
"Bronx Haven High School","X381","1409163","112","12581.8125","Transfer School","High School","333 EAST 151 STREET","BRONX","NY","10451","X","40.81820260000000","-73.91967600000000","[-73.919676,40.8182026]","HST","B","53","9","0","0","0","0","0","0","81","8",,,,,,,,,,
"Bronx Health Sciences High School","X249","2592976","308","8418.7532","General Academic","High School","750 BAYCHESTER AVENUE","BRONX","NY","10475","X","40.87404000000000","-73.83168700000000","[-73.831687,40.87404]",,,"61","95","89","93","10","10","79","83","0","5",,,,,,,,,,
"Bronx High School for Law and Community Service","X439","4171900","451","9250.3326","General Academic","High School","500 EAST FORDHAM ROAD","BRONX","NY","10458","X","40.85970190000000","-73.88758890000000","[-73.8875889,40.8597019]",,,"97","51","42","84","3","6","39","78","31","19",,,,,,,,,,
"Bronx High School for Medical Science","X413","4565350","458","9968.0131","General Academic","Secondary School","240 EAST 172 STREET","BRONX","NY","10457","X","40.83929500000000","-73.91138400000000","[-73.911384,40.839295]","EMS","B","72","96","83","87","28","29","56","58","1","1","2.292","10","51","37","1","2.590","13","34","34","19"
"Bronx High School for the Visual Arts","X418","3295872","406","8117.9113","General Academic","High School","2040 ANTIN PL","BRONX","NY","10462","X","40.85169740000000","-73.86467420000000","[-73.8646742,40.8516974]",,,"96","49","27","55","1","2","26","53","32","14",,,,,,,,,,
"Bronx High School for Writing and Communication Arts","X253","3223493","452","7131.6217","General Academic","High School","800 EAST GUN HILL ROAD","BRONX","NY","10467","X","40.87516300000000","-73.86165299999999","[-73.86165299999999,40.875163]",,,"96","63","31","50","1","2","30","48","15","19",,,,,,,,,,
"Bronx High School of Business","X412","4874178","443","11002.6591","General Academic","High School","240 EAST 172 STREET","BRONX","NY","10457","X","40.83929500000000","-73.91138400000000","[-73.911384,40.839295]",,,"102","65","47","73","20","30","28","42","2","28",,,,,,,,,,
"Bronx High School of Science","X445","15008825","2941","5103.3067","General Academic","High School","75 WEST 205 STREET","BRONX","NY","10468","X","40.87765950000000","-73.89107039999999","[-73.89107039999999,40.8776595]",,,"581","99","99","100","98","99","1","1","1","0",,,,,,,,,,
"Bronx International High School","X403","3323693","356","9336.2163","General Academic","High School","1110 BOSTON ROAD","BRONX","NY","10456","X","40.82801480000000","-73.90402320000000","[-73.9040232,40.8280148]",,,"61","74","36","49","2","2","34","47","3","12",,,,,,,,,,
"Bronx Lab School","X265","3204406","448","7152.6920","General Academic","High School","800 EAST GUN HILL ROAD","BRONX","NY","10467","X","40.87516300000000","-73.86165299999999","[-73.86165299999999,40.875163]",,,"96","74","39","52","0","0","39","52","26","0",,,,,,,,,,
"Bronx Latin","X267","3098815","351","8828.5328","General Academic","Secondary School","800 HOME STREET","BRONX","NY","10456","X","40.82691600000000","-73.90059699999999","[-73.90059699999999,40.826916]","EMS","A",,,,,,,,,,,"2.181","11","60","27","1","2.464","8","47","34","10"
"Bronx Leadership Academy High School","X525","4834039","658","7346.5638","General Academic","High School","1710 WEBSTER AVENUE","BRONX","NY","10457","X","40.84343120000000","-73.90315350000000","[-73.9031535,40.8434312]",,,"156","60","38","63","8","14","30","49","24","9",,,,,,,,,,
"Bronx Leadership Academy II High School","X527","3884741","446","8710.1816","General Academic","High School","730 CONCOURSE VILLAGE WEST","BRONX","NY","10451","X","40.82257620000000","-73.92365459999999","[-73.92365459999999,40.8225762]",,,"71","75","41","55","4","6","37","49","10","7",,,,,,,,,,
"Bronx Little School","X691","2085335","207","10074.0821","General Academic","Elementary","1827 ARCHER STREET","BRONX","NY","10460","X","40.83814400000000","-73.86604799999999","[-73.86604799999999,40.838144]","EMS","C",,,,,,,,,,,"2.252","14","53","25","7","2.373","12","48","29","10"
"Bronx Regional High School","X480","3269066","360","9080.7389","Transfer School","High School","1010 REV. J. A. POLITE AVENUE","BRONX","NY","10459","X","40.82310100000000","-73.89827300000000","[-73.898273,40.823101]","HST","B","119","22","8","39","0","0","8","39","65","9",,,,,,,,,,
"Bronx School for Law, Government and Justice","X505","5270512","632","8339.4177","General Academic","Secondary School","244 EAST 163 STREET","BRONX","NY","10451","X","40.82760830000000","-73.91892640000000","[-73.9189264,40.8276083]","EMS","C","98","67","46","68","4","6","42","62","25","5","2.313","5","59","34","1","2.596","6","42","37","14"
"Bronx School of Law and Finance","X284","3333592","429","7770.6107","General Academic","High School","99 TERRACE VIEW AVENUE","BRONX","NY","10463","X","40.87706970000000","-73.91261690000000","[-73.9126169,40.8770697]",,,"105","67","54","81","10","14","45","67","19","11",,,,,,,,,,
"Bronx Studio School for Writers and Artists","X269","2505975","306","8189.4608","General Academic","Intermediate","928 SIMPSON STREET","BRONX","NY","10459","X","40.81991860000000","-73.89375489999999","[-73.89375489999999,40.8199186]","EMS","C",,,,,,,,,,,"2.193","12","56","29","1","2.260","16","47","32","5"
"Bronx Theatre High School","X546","3474020","419","8291.2172","General Academic","High School","99 TERRACE VIEW AVENUE","BRONX","NY","10463","X","40.87706970000000","-73.91261690000000","[-73.9126169,40.8770697]",,,"100","66","39","59","1","2","38","58","20","13",,,,,,,,,,
"Bronx Writing Academy","X323","4207274","498","8448.3414","General Academic","Intermediate","270 EAST 167 STREET","BRONX","NY","10456","X","40.83324790000000","-73.91405960000000","[-73.9140596,40.8332479]","EMS","A",,,,,,,,,,,"2.061","21","51","25","1","2.323","13","49","29","8"
"Brooklyn Academy High School","K553","2344006","217","10801.8710","Transfer School","High School","832 MARCY AVENUE","BROOKLYN","NY","11216","K","40.68507420000000","-73.94717580000000","[-73.9471758,40.6850742]","HST","A","64","36","9","26","0","0","9","26","53","9",,,,,,,,,,
"Brooklyn Academy of Science and the Environment","K547","3908625","446","8763.7332","General Academic","High School","883 CLASSON AVENUE","BROOKLYN","NY","11225","K","40.66980600000000","-73.96066800000000","[-73.960668,40.669806]",,,"112","66","53","80","11","16","42","64","29","5",,,,,,,,,,
"Brooklyn Bridge Academy","K578","1864762","214","8713.8411","Transfer School","High School","6565 FLATLANDS AVENUE","BROOKLYN","NY","11236","K","40.63314200000000","-73.91707199999999","[-73.91707199999999,40.633142]","HST","C","84","13","5","36","0","0","5","36","70","10",,,,,,,,,,
"Brooklyn Brownstone School","K628","965416","110","8776.5091","General Academic","Early Childhood","272 MACDONOUGH STREET","BROOKLYN","NY","11233","K","40.68195930000000","-73.93537189999999","[-73.93537189999999,40.6819593]",,,,,,,,,,,,,,,,,,,,,,
"Brooklyn College Academy","K555","3430577","586","5854.2270","General Academic","Secondary School","350 CONEY ISLAND AVENUE","BROOKLYN","NY","11218","K","40.64925190000000","-73.97191190000000","[-73.9719119,40.6492519]","EMS","B","124","95","84","88","15","16","69","72","5","0","2.818","0","28","61","10","2.818","0","28","61","10"
"Brooklyn Collegiate: A College Board School","K493","3922866","606","6473.3762","General Academic","Secondary School","2021 BERGEN STREET","BROOKLYN","NY","11233","K","40.67412080000000","-73.91358009999999","[-73.91358009999999,40.6741208]","EMS","D","62","68","42","62","2","2","40","60","26","2","2.232","9","59","30","1","2.220","11","59","27","3"
"Brooklyn Community High School of Communication, Arts and Media","K412","3257517","426","7646.7535","General Academic","High School","300 WILLOUGHBY AVENUE","BROOKLYN","NY","11205","K","40.69261740000000","-73.95896239999999","[-73.95896239999999,40.6926174]",,,"2","0","0","0","0","0","0","0","0","0",,,,,,,,,,
"Brooklyn Democracy Academy","K643","1746237","199","8775.0603","Transfer School","High School","985 ROCKAWAY AVENUE","BROOKLYN","NY","11212","K","40.65629270000000","-73.90732410000000","[-73.9073241,40.6562927]","HST","A","56","5","5","100","0","0","5","100","88","7",,,,,,,,,,
"Brooklyn Generation School","K566","2056386","220","9347.2091","General Academic","High School","6565 FLATLANDS AVENUE","BROOKLYN","NY","11236","K","40.63314200000000","-73.91707199999999","[-73.91707199999999,40.633142]",,,"1","0","0","0","0","0","0","0","0","0",,,,,,,,,,
"Brooklyn High School for Law and Technology","K498","3493161","421","8297.2945","General Academic","High School","1396 BROADWAY","BROOKLYN","NY","11221","K","40.68839100000000","-73.92061400000000","[-73.920614,40.688391]",,,"132","67","47","70","10","15","37","55","7","14",,,,,,,,,,
"Brooklyn High School for Leadership and Community Service","K616","2150916","211","10193.9147","Transfer School","High School","300 WILLOUGHBY AVENUE","BROOKLYN","NY","11205","K","40.69261740000000","-73.95896239999999","[-73.95896239999999,40.6926174]","HST","C","50","0","0","0","0","0","0","0","96","4",,,,,,,,,,
"Brooklyn High School of the Arts","K656","4396043","608","7230.3339","General Academic","High School","345 DEAN STREET","BROOKLYN","NY","11217","K","40.68348599999999","-73.98027100000000","[-73.980271,40.68348599999999]",,,"154","69","51","74","12","17","39","57","29","3",,,,,,,,,,
"Brooklyn International High School","K439","3342537","414","8073.7609","General Academic","High School","49 FLATBUSH AVENUE EXTENSION","BROOKLYN","NY","11201","K","40.69720890000000","-73.98475160000000","[-73.9847516,40.6972089]",,,"87","85","61","72","0","0","61","72","13","2",,,,,,,,,,
"Brooklyn Lab School","K639","2062542","211","9775.0806","General Academic","High School","999 JAMAICA AVENUE","BROOKLYN","NY","11208","K","40.69228000000000","-73.86892700000000","[-73.868927,40.69228]",,,,,,,,,,,,,,,,,,,,,,
"Brooklyn Latin School, The","K449","2011451","281","7158.1886","General Academic","High School","223 GRAHAM AVENUE","BROOKLYN","NY","11206","K","40.71035300000000","-73.94372299999999","[-73.94372299999999,40.710353]",,,,,,,,,,,,,,,,,,,,,,
"Brooklyn Preparatory High School","K488","3094479","351","8816.1795","General Academic","High School","257 NORTH 6 STREET","BROOKLYN","NY","11211","K","40.71519450000000","-73.95480080000000","[-73.9548008,40.7151945]",,,"84","77","57","74","4","5","54","69","17","1",,,,,,,,,,
"Brooklyn School for Global Studies","K429","4784607","493","9705.0852","General Academic","Secondary School","284 BALTIC STREET","BROOKLYN","NY","11201","K","40.68546900000000","-73.99349660000000","[-73.9934966,40.685469]","EMS","B","107","42","30","71","0","0","30","71","40","6","2.030","16","64","19","0","2.222","10","59","28","2"
"Brooklyn School for Music & Theatre","K548","3237390","411","7876.8613","General Academic","High School","883 CLASSON AVENUE","BROOKLYN","NY","11225","K","40.66980600000000","-73.96066800000000","[-73.960668,40.669806]",,,"98","82","58","71","13","16","45","55","15","3",,,,,,,,,,
"BROOKLYN SCHOOL OF INQUIRY","K686","866740","108","8025.3704","General Academic","Early Childhood","50 AVENUE P","BROOKLYN","NY","11204","K","40.60712560000000","-73.98714509999999","[-73.98714509999999,40.6071256]",,,,,,,,,,,,,,,,,,,,,,
"Brooklyn Secondary School for Collaborative Studies","K448","5701670","704","8098.9631","General Academic","Secondary School","610 HENRY STREET","BROOKLYN","NY","11231","K","40.67945300000000","-74.00202700000000","[-74.002027,40.679453]","EMS","B","79","87","66","75","0","0","66","75","6","4","2.272","12","51","33","3","2.250","13","56","24","7"
"Brooklyn Studio Secondary School","K690","6926652","875","7916.1737","General Academic","Secondary School","8310 21ST AVENUE","BROOKLYN","NY","11214","K","40.60497220000000","-73.99434440000000","[-73.9943444,40.6049722]","EMS","A","134","60","52","86","15","25","37","62","23","11","2.626","4","34","56","5","3.292","2","16","32","49"
"Brooklyn Technical High School","K430","24960730","4947","5045.6297","General Academic","High School","29 FT GREENE PLACE","BROOKLYN","NY","11217","K","40.68887200000000","-73.97643800000000","[-73.976438,40.688872]",,,"1011","89","89","100","83","93","7","8","10","0",,,,,,,,,,
"Brooklyn Theatre Arts High School","K567","2143855","250","8575.4200","General Academic","High School","6565 FLATLANDS AVENUE","BROOKLYN","NY","11236","K","40.63314200000000","-73.91707199999999","[-73.91707199999999,40.633142]",,,,,,,,,,,,,,,,,,,,,,
"Brownsville Academy High School","K568","2206195","221","9982.7828","Transfer School","High School","1150 EAST NEW YORK AVENUE","BROOKLYN","NY","11212","K","40.66633230000000","-73.92403900000000","[-73.924039,40.6663323]","HST","B","86","13","6","46","0","0","6","46","79","8",,,,,,,,,,
"Bushwick Community High School","K564","3508707","395","8882.8025","Transfer School","High School","231 PALMETTO STREET","BROOKLYN","NY","11221","K","40.69548690000000","-73.91502460000000","[-73.9150246,40.6954869]","HST","B","140","4","2","60","0","0","2","60","59","35",,,,,,,,,,
"Bushwick Leaders High School for Academic Excellence","K556","3968157","481","8249.8067","General Academic","High School","797 BUSHWICK AVENUE","BROOKLYN","NY","11221","K","40.69512000000000","-73.92733870000000","[-73.9273387,40.69512]",,,"103","63","27","43","1","2","26","42","24","6",,,,,,,,,,
"Bushwick School for Social Justice","K549","3620943","420","8621.2929","General Academic","High School","400 IRVING AVENUE","BROOKLYN","NY","11237","K","40.69698250000000","-73.91082250000000","[-73.9108225,40.6969825]",,,"102","65","34","53","3","5","31","49","18","17",,,,,,,,,,
"BUSINESS OF SPORTS SCHOOL","M393","1309894","103","12717.4175","Career Technical","High School","439 WEST 49TH STREET","MANHATTAN","NY","10019","M","40.76361310000000","-73.99114820000000","[-73.9911482,40.7636131]",,,,,,,,,,,,,,,,,,,,,,
"Business, Computer Applications & Entrepreneurship High School","Q496","3347286","476","7032.1134","General Academic","High School","207- 01 116TH AVENUE","QUEENS","NY","11411","Q","40.69879000000000","-73.74632600000000","[-73.746326,40.69879]",,,"107","52","33","63","5","9","28","54","36","8",,,,,,,,,,
"Cascades High School","M650","2220549","226","9825.4381","Transfer School","High School","198 FORSYTH STREET","MANHATTAN","NY","10002","M","40.72251800000000","-73.99059720000000","[-73.9905972,40.722518]","HST","A","95","33","18","55","0","0","18","55","57","7",,,,,,,,,,
"Catherine & Count Basie Middle School 72","Q072","6642499","804","8261.8147","General Academic","Intermediate","133-25 GUY R BREWER BOULEVARD","QUEENS","NY","11434","Q","40.67510110000000","-73.77569050000000","[-73.7756905,40.6751011]","EMS","C",,,,,,,,,,,"2.262","15","47","33","4","2.414","17","43","20","19"
"Celia Cruz Bronx High School of Music, The","X442","3242010","365","8882.2192","General Academic","High School","2780 RESERVOIR AVENUE","BRONX","NY","10468","X","40.87088010000000","-73.89775290000000","[-73.8977529,40.8708801]",,,"74","68","51","76","8","12","43","64","23","3",,,,,,,,,,
"Central Park East High School","M555","2842202","332","8560.8494","General Academic","High School","1573 MADISON AVENUE","MANHATTAN","NY","10029","M","40.79367990000000","-73.94921640000000","[-73.9492164,40.7936799]",,,"72","58","32","55","0","0","32","55","25","7",,,,,,,,,,
"Central Park East I","M497","2012484","204","9865.1176","General Academic","Elementary","1573 MADISON AVENUE","MANHATTAN","NY","10029","M","40.79367990000000","-73.94921640000000","[-73.9492164,40.7936799]","EMS","C",,,,,,,,,,,"2.606","9","35","41","14","2.616","9","33","44","13"
"Central Park East II","M964","2379855","218","10916.7661","General Academic","Elementary","19 EAST 103 STREET","MANHATTAN","NY","10029","M","40.79229400000000","-73.95143399999999","[-73.95143399999999,40.792294]","EMS","B",,,,,,,,,,,"2.363","17","38","35","9","2.585","9","37","39","14"
"Channel View School for Research","Q262","3675704","565","6505.6708","General Academic","Secondary School","100-00 BEACH CHANNEL DRIVE","QUEENS","NY","11694","Q","40.58555339999999","-73.82310249999999","[-73.82310249999999,40.58555339999999]","EMS","B","68","93","82","89","21","22","62","67","3","4","2.560","4","42","48","6","2.878","0","32","47","20"
"Chelsea Career and Technical Education High School","M615","5415799","610","8878.3590","Career Technical","High School","131 AVENUE OF THE AMERICAS","MANHATTAN","NY","10013","M","40.72488329999999","-74.00429450000000","[-74.0042945,40.72488329999999]",,,"170","51","29","58","13","26","17","33","12","18",,,,,,,,,,
"Choir Academy of Harlem","M469","4047058","417","9705.1751","General Academic","Secondary School","2005 MADISON AVENUE","MANHATTAN","NY","10035","M","40.80610660000000","-73.94106670000000","[-73.9410667,40.8061066]","EMS","C","84","56","27","49","1","2","26","47","25","12","1.877","24","63","10","1","2.040","23","52","19","4"
"Christopher Columbus High School","X415","12659238","1396","9068.2221","General Academic","High School","925 ASTOR AVENUE","BRONX","NY","10469","X","40.85964000000000","-73.86074280000000","[-73.8607428,40.85964]",,,"435","36","18","51","2","6","16","45","38","18",,,,,,,,,,
"City College Academy of the Arts","M293","3098804","414","7485.0338","General Academic","Secondary School","4600 BROADWAY","MANHATTAN","NY","10040","M","40.86094500000000","-73.93007290000000","[-73.9300729,40.860945]","EMS","A",,,,,,,,,,,"2.444","6","46","44","3","2.939","2","31","37","29"
"CITY POLYTECHNIC HIGH SCHOOL OF ENGINEERING, ARCHITECTURE, AND TECHNOLOGY","K674","1270282","124","10244.2097","Career Technical","High School","105 JOHNSON STREET","BROOKLYN","NY","11201","K","40.69543800000000","-73.98609990000000","[-73.9860999,40.695438]",,,,,,,,,,,,,,,,,,,,,,
"Civic Leadership Academy","Q293","1664771","221","7532.9005","General Academic","High School","45-10 94TH STREET","QUEENS","NY","11373","Q","40.74320400000000","-73.87148200000000","[-73.871482,40.743204]",,,,,,,,,,,,,,,,,,,,,,
"Clara Barton High School","K600","14987136","1980","7569.2606","Career Technical","High School","901 CLASSON AVENUE","BROOKLYN","NY","11225","K","40.66930580000000","-73.96205719999999","[-73.96205719999999,40.6693058]",,,"489","66","46","70","4","6","42","64","23","7",,,,,,,,,,
"Coalition School for Social Change","M409","3685898","385","9573.7610","General Academic","High School","2351 1ST AVENUE","MANHATTAN","NY","10035","M","40.79930540000000","-73.93302550000000","[-73.9330255,40.7993054]",,,"83","76","15","19","0","0","15","19","0","11",,,,,,,,,,
"Cobble Hill School of American Studies","K519","6388059","718","8897.0181","General Academic","High School","347 BALTIC STREET","BROOKLYN","NY","11201","K","40.68472200000000","-73.99058099999999","[-73.99058099999999,40.684722]",,,"155","63","30","47","2","3","28","44","16","9",,,,,,,,,,
"Collaborative Academy of Science, Technology, & Language-Arts Education","M345","2693267","256","10520.5742","General Academic","Intermediate","220 HENRY STREET","MANHATTAN","NY","10002","M","40.71348090000000","-73.98532120000002","[-73.98532120000002,40.7134809]","EMS","B",,,,,,,,,,,"2.367","8","50","36","4","2.505","10","42","34","13"
"Collegiate Institute for Math and Science","X288","3284943","485","6773.0784","General Academic","High School","925 ASTOR AVENUE","BRONX","NY","10469","X","40.85964000000000","-73.86074280000000","[-73.8607428,40.85964]",,,"113","72","56","78","20","27","36","51","12","12",,,,,,,,,,
"Columbia Secondary School","M362","1700735","288","5905.3299","General Academic","Intermediate","425 WEST 123 STREET","MANHATTAN","NY","10027","M","40.81069140000000","-73.95625600000000","[-73.956256,40.8106914]","EMS","C",,,,,,,,,,,"2.989","0","15","70","14","3.454","0","3","48","48"
"Community Action School - MS 258","M258","2369896","254","9330.2992","General Academic","Intermediate","154 WEST 93 STREET","MANHATTAN","NY","10025","M","40.79166970000000","-73.97072620000000","[-73.9707262,40.7916697]","EMS","A",,,,,,,,,,,"2.292","5","61","32","1","2.740","1","44","35","20"
"Community Health Academy of the Heights","M346","3584379","432","8297.1736","General Academic","Secondary School","504 WEST 158TH STREET","MANHATTAN","NY","10032","M","40.83355130000000","-73.94171829999999","[-73.94171829999999,40.8335513]","EMS","C",,,,,,,,,,,"1.806","31","55","12","0","1.979","22","58","18","1"
"Community School for Social Justice","X427","2997825","343","8740.0146","General Academic","High School","350 GERARD AVENUE","BRONX","NY","10451","X","40.81565240000000","-73.93044700000000","[-73.930447,40.8156524]",,,"82","50","9","17","0","0","9","17","27","20",,,,,,,,,,
"Comprehensive Model School Project M.S. 327","X327","2028339","279","7270.0323","General Academic","Intermediate","1501 JEROME AVENUE","BRONX","NY","10452","X","40.84238180000000","-73.91616710000000","[-73.9161671,40.8423818]","EMS","A",,,,,,,,,,,"2.313","9","52","36","2","3.000","5","23","39","33"
"Concord High School","R470","1870393","170","11002.3118","Transfer School","High School","109 RHINE AVENUE","STATEN ISLAND","NY","10304","R","40.61096280000000","-74.08727329999999","[-74.08727329999999,40.6109628]","HST","A","69","28","13","47","0","0","13","47","51","12",,,,,,,,,,
"Conselyea Preparatory School","K577","3042152","419","7260.5060","General Academic","Intermediate","208 NORTH 5 STREET","BROOKLYN","NY","11211","K","40.71528330000000","-73.95662240000000","[-73.9566224,40.7152833]","EMS","B",,,,,,,,,,,"2.515","5","45","42","7","2.757","5","37","34","23"
"Cornerstone Academy for Social Action","X189","4005462","430","9315.0279","General Academic","Elementary","3441 STEENWICK AVENUE","BRONX","NY","10475","X","40.88274200000001","-73.83061599999999","[-73.83061599999999,40.88274200000001]","EMS","F",,,,,,,,,,,"1.949","27","52","16","3","2.252","15","53","22","9"
"CORNERSTONE ACADEMY FOR SOCIAL ACTION MIDDLE SCHOOL (CASA)","X462","1281244","133","9633.4135","General Academic","Intermediate","3441 STEENWICK AVENUE","BRONX","NY","10475","X","40.88274200000001","-73.83061599999999","[-73.83061599999999,40.88274200000001]","EMS","None",,,,,,,,,,,"2.020","19","59","21","0","2.323","8","57","28","6"
"CRESTON ACADEMY","X447","1568621","138","11366.8188","General Academic","Intermediate","125 EAST 181 STREET","BRONX","NY","10453","X","40.85490280000000","-73.90341980000000","[-73.9034198,40.8549028]","EMS","None",,,,,,,,,,,"1.888","27","56","16","0","2.505","10","44","30","15"
"Crotona Academy High School","X321","1512011","137","11036.5766","Transfer School","High School","639-55 ST. ANNS AVENUE","BRONX","NY","10455","X","40.81653080000000","-73.91172470000000","[-73.9117247,40.8165308]","HST","D","50","8","6","75","0","0","6","75","70","20",,,,,,,,,,
"CSI High School for International Studies","R047","3210087","492","6524.5671","General Academic","High School","100 ESSEX DRIVE","STATEN ISLAND","NY","10314","R","40.58196900000000","-74.15935999999999","[-74.15935999999999,40.581969]",,,"93","95","83","88","19","21","63","67","5","0",,,,,,,,,,
"Cultural Academy for the Arts and Sciences","K629","1493892","152","9828.2368","General Academic","High School","5800 TILDEN AVENUE","BROOKLYN","NY","11203","K","40.64773300000000","-73.92220200000000","[-73.922202,40.647733]",,,,,,,,,,,,,,,,,,,,,,
"Curtis High School","R450","18300013","2654","6895.2573","General Academic","High School","105 HAMILTON AVENUE","STATEN ISLAND","NY","10301","R","40.64474890000000","-74.08118130000001","[-74.08118130000001,40.6447489]",,,"680","71","62","88","21","29","42","59","19","8",,,,,,,,,,
"Cynthia Jenkins School","Q037","4899108","581","8432.1997","General Academic","Elementary","179-37 137 AVENUE","QUEENS","NY","11434","Q","40.67616900000000","-73.75879700000000","[-73.758797,40.676169]","EMS","C",,,,,,,,,,,"2.272","17","44","32","6","2.333","12","51","27","9"
"Cypress Hills Collegiate Preparatory School","K659","2909933","420","6928.4119","General Academic","High School","999 JAMAICA AVENUE","BROOKLYN","NY","11208","K","40.69228000000000","-73.86892700000000","[-73.868927,40.69228]",,,"1","0","0","0","0","0","0","0","0","0",,,,,,,,,,
"DeWitt Clinton High School","X440","31397868","4444","7065.2268","General Academic","High School","100 WEST MOSHOLU PARKWAY SOUTH","BRONX","NY","10468","X","40.87999500000000","-73.88715499999999","[-73.88715499999999,40.879995]",,,"1008","60","44","73","18","29","27","44","22","14",,,,,,,,,,
"Discovery High School","X549","3710357","451","8226.9557","General Academic","High School","2780 RESERVOIR AVENUE","BRONX","NY","10468","X","40.87088010000000","-73.89775290000000","[-73.8977529,40.8708801]",,,"101","55","43","78","21","38","22","40","25","12",,,,,,,,,,
"Dr. Jacqueline Peek-Davis School","K012","4089080","291","14051.8213","General Academic","Elementary","430 HOWARD AVENUE","BROOKLYN","NY","11233","K","40.67305280000001","-73.91962690000000","[-73.9196269,40.67305280000001]","EMS","B",,,,,,,,,,,"2.160","22","48","22","8","2.747","6","33","40","20"
"Dr. Susan S. McKinney Secondary School of the Arts","K265","4597562","521","8824.4952","General Academic","Secondary School","101 PARK AVENUE","BROOKLYN","NY","11205","K","40.69635220000000","-73.97593570000000","[-73.9759357,40.6963522]","EMS","C","100","46","38","83","0","0","38","83","41","9","2.050","20","55","23","1","1.846","31","54","10","3"
"DreamYard Preparatory School","X329","2735738","366","7474.6940","General Academic","High School","240 EAST 172 STREET","BRONX","NY","10457","X","40.83929500000000","-73.91138400000000","[-73.911384,40.839295]",,,"5","0","0","0","0","0","0","0","0","0",,,,,,,,,,
"E.S.M.T- I.S. 190","X190","2254548","241","9354.9710","General Academic","Intermediate","1550 CROTONA PARK EAST","BRONX","NY","10460","X","40.83614200000000","-73.89277190000000","[-73.8927719,40.836142]","EMS","B",,,,,,,,,,,"2.010","16","65","17","0","2.204","12","58","24","4"
"Eagle Academy for Young Men","X231","3327034","449","7409.8753","General Academic","High School","4143 THIRD AVENUE","BRONX","NY","10457","X","40.84526400000000","-73.89717600000000","[-73.897176,40.845264]",,,"85","65","40","62","0","0","40","62","29","6",,,,,,,,,,
"Eagle Academy for Young Men II","K644","1304076","147","8871.2653","General Academic","Intermediate","1137 HERKIMER STREET","BROOKLYN","NY","11233","K","40.67783100000000","-73.91617370000000","[-73.9161737,40.677831]","EMS","A",,,,,,,,,,,"2.131","15","56","28","0","2.525","3","48","41","7"
"Earth School","M364","2814702","342","8230.1228","General Academic","Elementary","600 EAST 6 STREET","MANHATTAN","NY","10009","M","40.72443990000000","-73.98161809999999","[-73.98161809999999,40.7244399]","EMS","D",,,,,,,,,,,"2.565","10","35","42","12","2.636","8","39","33","19"
"East Bronx Academy for the Future","X271","4962563","621","7991.2448","General Academic","Secondary School","1716 SOUTHERN BOULEVARD","BRONX","NY","10460","X","40.83681800000001","-73.88766600000000","[-73.887666,40.83681800000001]","EMS","B","80","55","24","43","5","9","19","34","25","14","2.090","17","57","24","1","2.171","17","53","24","5"
"EAST BROOKLYN COMMUNITY HIGH SCHOOL","K673","1356847","150","9045.6467","Transfer School","High School","9517 KINGS HIGHWAY","BROOKLYN","NY","11212","K","40.65989000000000","-73.92066100000000","[-73.920661,40.65989]","HST","None",,,,,,,,,,,,,,,,,,,,
"East Flatbush Community Research School","K581","2212090","252","8778.1349","General Academic","Intermediate","905 WINTHROP STREET","BROOKLYN","NY","11203","K","40.65843380000000","-73.92911010000000","[-73.9291101,40.6584338]","EMS","C",,,,,,,,,,,"1.810","29","61","10","0","1.989","23","57","16","3"
"EAST FORDHAM ACADEMY FOR THE ARTS","X459","1232054","110","11200.4909","General Academic","Intermediate","120 EAST 184 STREET","BRONX","NY","10468","X","40.85970840000000","-73.89988230000000","[-73.8998823,40.8597084]","EMS","None",,,,,,,,,,,"1.757","36","51","12","0","1.785","36","47","15","0"
"EAST NEW YORK ELEMENTARY SCHOOL OF EXCELLENCE","K677","3018626","316","9552.6139","General Academic","Elementary","605 SHEPHERD AVENUE","BROOKLYN","NY","11208","K","40.66939610000000","-73.87961560000001","[-73.87961560000001,40.6693961]","EC","None",,,,,,,,,,,"1.969","36","34","23","5","2.242","22","41","26","10"
"East New York Family Academy","K409","3399755","448","7588.7388","General Academic","Secondary School","2057 LINDEN BOULEVARD","BROOKLYN","NY","11207","K","40.66109500000000","-73.88666100000000","[-73.886661,40.661095]","EMS","B","62","81","73","90","21","26","52","64","15","5","2.640","2","38","54","6","3.540","0","5","36","59"
"EAST NEW YORK MIDDLE SCHOOL OF EXCELLENCE","K678","1096538","84","13054.0238","General Academic","Intermediate","605 SHEPHERD AVENUE","BROOKLYN","NY","11208","K","40.66939610000000","-73.87961560000001","[-73.87961560000001,40.6693961]","EMS","None",,,,,,,,,,,"1.979","25","51","23","0","2.010","20","59","19","1"
"East Side Community School","M450","4976826","559","8903.0877","General Academic","Secondary School","420 EAST 12 STREET","MANHATTAN","NY","10009","M","40.72984590000000","-73.98315110000000","[-73.9831511,40.7298459]","EMS","A","85","72","68","95","0","0","68","95","13","11","2.265","12","52","30","4","2.798","3","36","38","22"
"East Side Middle School","M114","2260212","388","5825.2887","General Academic","Intermediate","331 EAST 91ST STREET","MANHATTAN","NY","10128","M","40.78044740000000","-73.94770820000000","[-73.9477082,40.7804474]","EMS","A",,,,,,,,,,,"3.131","0","10","66","23","3.780","0","1","20","79"
"East-West School of International Studies","Q281","3262429","547","5964.2212","General Academic","Secondary School","46-21 COLDEN STREET","QUEENS","NY","11355","Q","40.74942990000000","-73.82141000000000","[-73.82141,40.7494299]","EMS","A","2","0","0","0","0","0","0","0","0","0","2.727","4","28","58","9","3.383","2","13","29","55"
"Ebbets Field Middle School","K352","4510173","417","10815.7626","General Academic","Intermediate","46 MCKEEVER PLACE","BROOKLYN","NY","11225","K","40.66500150000000","-73.95903690000000","[-73.9590369,40.6650015]","EMS","B",,,,,,,,,,,"1.765","34","53","11","0","2.090","24","48","21","6"
"EBC High School for Public Service?Bushwick","K545","5860819","710","8254.6746","General Academic","High School","1155 DEKALB AVENUE","BROOKLYN","NY","11221","K","40.69473300000000","-73.92929500000000","[-73.929295,40.694733]",,,"150","61","29","48","13","21","17","28","30","7",,,,,,,,,,
"Edward A. Reynolds West Side High School","M505","5966876","593","10062.1855","Transfer School","High School","140 WEST 102 STREET","MANHATTAN","NY","10025","M","40.79713000000000","-73.96679100000000","[-73.966791,40.79713]","HST","B","227","25","6","25","0","0","6","25","58","15",,,,,,,,,,
"Edward R. Murrow High School","K525","25873843","3949","6551.9987","General Academic","High School","1600 AVENUE L","BROOKLYN","NY","11230","K","40.62045699999999","-73.95996099999999","[-73.95996099999999,40.62045699999999]",,,"879","70","65","94","33","48","32","46","21","7",,,,,,,,,,
"El Puente Academy for Peace and Justice","K685","2230465","197","11322.1574","General Academic","High School","250 HOOPER STREET","BROOKLYN","NY","11211","K","40.70584660000000","-73.95567729999999","[-73.95567729999999,40.7058466]",,,"31","74","0","0","0","0","0","0","13","3",,,,,,,,,,
"Eleanor Roosevelt High School","M416","3176411","498","6378.3353","General Academic","High School","411 EAST 76 STREET","MANHATTAN","NY","10021","M","40.77020940000000","-73.95348790000000","[-73.9534879,40.7702094]",,,"115","99","98","99","66","67","32","33","0","0",,,,,,,,,,
"Elementary School for Math, Science, and Technology","X382","2616505","301","8692.7076","General Academic","Elementary","125 EAST 181 STREET","BRONX","NY","10453","X","40.85490280000000","-73.90341980000000","[-73.9034198,40.8549028]","EC","C",,,,,,,,,,,"1.918","33","40","25","0","2.333","21","36","30","12"
"Elijah Stroud Middle School","K353","2034041","151","13470.4702","General Academic","Intermediate","750 CLASSON AVENUE","BROOKLYN","NY","11238","K","40.67428260000000","-73.96030130000000","[-73.9603013,40.6742826]","EMS","A",,,,,,,,,,,"2.060","16","61","22","0","2.265","14","51","26","7"
"Ella Baker School","M225","2777148","327","8492.8073","General Academic","K-8","317 EAST 67 STREET","MANHATTAN","NY","10065","M","40.76529500000000","-73.95993299999999","[-73.95993299999999,40.765295]","EMS","B",,,,,,,,,,,"2.424","6","53","32","8","2.590","5","41","44","10"
"EMMA LAZARUS HIGH SCHOOL","M394","1774291","150","11828.6067","Transfer School","High School","100 HESTER STREET","MANHATTAN","NY","10002","M","40.71651000000000","-73.99369970000000","[-73.9936997,40.71651]","HST","None",,,,,,,,,,,,,,,,,,,,
"Emolior Academy","X383","1197387","153","7826.0588","General Academic","Intermediate","1970 WEST FARMS ROAD","BRONX","NY","10460","X","40.83865180000000","-73.88107939999999","[-73.88107939999999,40.8386518]","EMS","B",,,,,,,,,,,"2.132","14","57","27","0","2.163","14","56","26","2"
"English Language Learners and International Support Preparatory Academy (ELLIS)","X397","1557958","165","9442.1697","General Academic","High School","99 TERRACE VIEW AVENUE","BRONX","NY","10463","X","40.87706970000000","-73.91261690000000","[-73.9126169,40.8770697]",,,,,,,,,,,,,,,,,,,,,,
"Entrada Academy","X384","1894793","204","9288.2010","General Academic","Intermediate","977 FOX STREET","BRONX","NY","10459","X","40.82237120000000","-73.89386040000000","[-73.8938604,40.8223712]","EMS","A",,,,,,,,,,,"1.938","29","47","21","1","1.979","26","50","20","2"
"ESPERANZA PREPARATORY ACADEMY","M372","2378735","202","11775.9158","General Academic","Intermediate","240 EAST 109 STREET","MANHATTAN","NY","10029","M","40.79269280000000","-73.94168800000000","[-73.941688,40.7926928]","EMS","A",,,,,,,,,,,"1.919","22","63","14","0","2.060","19","59","17","4"
"Essence School","K311","2192447","240","9135.1958","General Academic","Intermediate","590 SHEFFIELD AVENUE","BROOKLYN","NY","11207","K","40.66234660000000","-73.89445719999999","[-73.89445719999999,40.6623466]","EMS","B",,,,,,,,,,,"2.061","12","68","18","0","2.262","12","56","24","7"
"Essex Street Academy","M294","2883019","365","7898.6822","General Academic","High School","350 GRAND STREET","MANHATTAN","NY","10002","M","40.71740050000000","-73.98961390000000","[-73.9896139,40.7174005]",,,"70","77","76","98","0","0","76","98","21","0",,,,,,,,,,
"Excelsior Preparatory High School","Q265","3091886","414","7468.3237","General Academic","High School","143-10 SPRINGFIELD BOULEVARD","QUEENS","NY","11413","Q","40.66825890000000","-73.75689609999999","[-73.75689609999999,40.6682589]",,,"97","71","70","99","6","9","64","90","25","3",,,,,,,,,,
"Eximius College Preparatory Academy: A College Board School","X250","2913480","386","7547.8756","General Academic","Secondary School","1363 FULTON AVENUE","BRONX","NY","10456","X","40.83387500000001","-73.90281800000000","[-73.902818,40.83387500000001]","EMS","None","53","74","57","77","15","21","42","56","19","4","2.292","7","59","30","3","2.285","10","53","32","3"
"Expeditionary Learning School for Community Leaders","K572","1677227","161","10417.5590","General Academic","High School","2630 BENSON AVENUE","BROOKLYN","NY","11214","K","40.59301500000000","-73.98631499999999","[-73.98631499999999,40.593015]",,,"2","0","0","0","0","0","0","0","0","0",,,,,,,,,,
"Facing History School, The","M303","3634014","401","9062.3791","General Academic","High School","525 WEST 50TH STREET","MANHATTAN","NY","10019","M","40.76533840000000","-73.99310880000000","[-73.9931088,40.7653384]",,,"105","45","45","100","0","0","45","100","33","19",,,,,,,,,,
"Fannie Lou Hamer Freedom High School","X682","4405126","514","8570.2840","General Academic","High School","1021 JENNINGS STREET","BRONX","NY","10460","X","40.83077790000000","-73.88573339999999","[-73.88573339999999,40.8307779]",,,"105","66","55","84","0","0","55","84","22","8",,,,,,,,,,
"Fannie Lou Hamer Middle School","X286","2489559","235","10593.8681","General Academic","Intermediate","1001 JENNINGS STREET","BRONX","NY","10460","X","40.83148700000000","-73.88652499999999","[-73.88652499999999,40.831487]","EMS","A",,,,,,,,,,,"2.101","16","58","24","1","2.181","17","51","27","4"
"FDNY High School for Fire and Life Safety","K502","3333173","420","7936.1262","General Academic","High School","400 PENNSYLVANIA AVENUE","BROOKLYN","NY","11207","K","40.66760120000000","-73.89479150000000","[-73.8947915,40.6676012]",,,"102","55","16","29","0","0","16","29","25","16",,,,,,,,,,
"Felisa Rincon de Gautier Institute for Law and Public Policy, The","X519","3192346","403","7921.4541","General Academic","High School","1440 STORY AVENUE","BRONX","NY","10473","X","40.82112510000000","-73.88174529999999","[-73.88174529999999,40.8211251]",,,"95","55","32","58","0","0","32","58","35","11",,,,,,,,,,
"Fiorello H. LaGuardia High School of Music & Art and Performing Arts","M485","15070524","2527","5963.8006","General Academic","High School","100 AMSTERDAM AVENUE","MANHATTAN","NY","10023","M","40.77413900000000","-73.98535600000000","[-73.985356,40.774139]",,,"655","96","95","99","63","66","32","33","3","1",,,,,,,,,,
"Flushing High School","Q460","18096745","2745","6592.6211","General Academic","High School","35-01 UNION STREET","QUEENS","NY","11354","Q","40.76486800000000","-73.82681900000000","[-73.826819,40.764868]",,,"559","52","43","82","9","18","33","64","22","19",,,,,,,,,,
"Flushing International High School","Q263","3032681","393","7716.7455","General Academic","High School","144-80 BARCLAY AVENUE","QUEENS","NY","11355","Q","40.76034710000000","-73.81790930000000","[-73.8179093,40.7603471]",,,"99","58","37","65","0","0","37","65","35","7",,,,,,,,,,
"Food and Finance High School","M288","3715138","436","8520.9587","Career Technical","High School","525 WEST 50TH STREET","MANHATTAN","NY","10019","M","40.76533840000000","-73.99310880000000","[-73.9931088,40.7653384]",,,"79","75","61","81","0","0","61","81","22","3",,,,,,,,,,
"Fordham High School for the Arts","X437","3926283","371","10582.9730","General Academic","High School","500 EAST FORDHAM ROAD","BRONX","NY","10458","X","40.85970190000000","-73.88758890000000","[-73.8875889,40.8597019]",,,"89","71","37","52","1","2","36","51","7","11",,,,,,,,,,
"Fordham Leadership Academy for Business and Technology","X438","4857631","495","9813.3960","General Academic","High School","500 EAST FORDHAM ROAD","BRONX","NY","10458","X","40.85970190000000","-73.88758890000000","[-73.8875889,40.8597019]",,,"123","48","37","76","2","3","35","73","25","22",,,,,,,,,,
"Foreign Language Academy of Global Studies","X520","4254056","457","9308.6565","General Academic","High School","470 JACKSON AVENUE","BRONX","NY","10455","X","40.81104600000000","-73.90937600000000","[-73.909376,40.811046]",,,"104","61","49","81","1","2","48","79","21","10",,,,,,,,,,
"Forest Hills High School","Q440","20864261","3858","5408.0511","General Academic","High School","67-01 110 STREET","QUEENS","NY","11375","Q","40.72947210000000","-73.84567130000000","[-73.8456713,40.7294721]",,,"946","80","60","75","28","35","32","40","11","6",,,,,,,,,,
"Fort Hamilton High School","K490","25256862","4270","5914.9560","General Academic","High School","8301 SHORE ROAD","BROOKLYN","NY","11209","K","40.62681400000000","-74.03808699999999","[-74.03808699999999,40.626814]",,,"1044","60","47","78","18","30","29","49","22","15",,,,,,,,,,
"Foundations Academy","K322","2329553","223","10446.4260","General Academic","High School","70 TOMPKINS AVENUE","BROOKLYN","NY","11206","K","40.69712699999999","-73.94666070000001","[-73.94666070000001,40.69712699999999]",,,"94","76","56","75","1","1","55","73","20","1",,,,,,,,,,
"Frances Perkins Academy","K632","1256032","110","11418.4727","Career Technical","High School","50 BEDFORD AVENUE","BROOKLYN","NY","11222","K","40.72224860000000","-73.95328190000000","[-73.9532819,40.7222486]",,,,,,,,,,,,,,,,,,,,,,
"Francis Lewis High School","Q430","25896533","4460","5806.3975","General Academic","High School","58-20 UTOPIA PARKWAY","QUEENS","NY","11365","Q","40.74060799999999","-73.79485500000000","[-73.794855,40.74060799999999]",,,"1134","78","65","83","40","51","24","31","17","2",,,,,,,,,,
"Frank Sinatra School of the Arts High School","Q501","4716917","725","6506.0924","General Academic","High School","35-12 35TH AVENUE","QUEENS","NY","11106","Q","40.75643390000000","-73.92494340000000","[-73.9249434,40.7564339]",,,"162","96","90","93","38","39","52","54","4","0",,,,,,,,,,
"Franklin Delano Roosevelt High School","K505","24283745","3486","6966.0772","General Academic","High School","5800 20 AVENUE","BROOKLYN","NY","11204","K","40.62128400000000","-73.98258700000000","[-73.982587,40.621284]",,,"840","48","39","81","16","33","23","48","29","21",,,,,,,,,,
"Frederick Douglass Academy","M499","8781711","1596","5502.3252","General Academic","Secondary School","2581 7TH AVENUE","MANHATTAN","NY","10039","M","40.82430979999999","-73.93697350000000","[-73.9369735,40.82430979999999]","EMS","C","212","79","73","92","28","36","44","56","15","3","2.383","10","45","40","4","2.787","7","30","39","23"
"Frederick Douglass Academy II Secondary School","M860","3339888","441","7573.4422","General Academic","Secondary School","215 WEST 114 STREET","MANHATTAN","NY","10026","M","40.80235920000000","-73.95447279999999","[-73.95447279999999,40.8023592]","EMS","C","69","55","46","84","10","18","36","66","35","0","2.010","19","59","20","0","1.980","25","54","19","2"
"Frederick Douglass Academy III Secondary School","X517","3993346","587","6802.9744","General Academic","Secondary School","3630 THIRD AVENUE","BRONX","NY","10456","X","40.83410000000000","-73.90407830000000","[-73.9040783,40.8341]","EMS","C","69","77","46","60","1","2","45","59","20","1","2.151","14","57","27","1","2.121","20","52","22","5"
"Frederick Douglass Academy IV Secondary School","K393","3727561","505","7381.3089","General Academic","Secondary School","1014 LAFAYETTE AVENUE","BROOKLYN","NY","11221","K","40.69214970000000","-73.93148939999999","[-73.93148939999999,40.6921497]","EMS","F","72","93","78","84","6","6","72","78","4","3","2.102","14","60","24","0","2.270","9","60","26","5"
"Frederick Douglass Academy V. Middle School","X273","2055098","263","7814.0608","General Academic","Intermediate","2111 CROTONA AVENUE","BRONX","NY","10457","X","40.84861590000000","-73.88844490000000","[-73.8884449,40.8486159]","EMS","B",,,,,,,,,,,"2.222","10","58","30","1","2.535","9","46","26","18"
"Frederick Douglass Academy VI High School","Q260","2739256","421","6506.5463","General Academic","High School","8-21 BAY 25 STREET","QUEENS","NY","11691","Q","40.60153200000000","-73.76397899999999","[-73.76397899999999,40.601532]",,,"85","75","54","72","0","0","54","72","22","2",,,,,,,,,,
"Frederick Douglass Academy VII High School","K514","3078123","422","7294.1303","General Academic","High School","226 BRISTOL STREET","BROOKLYN","NY","11212","K","40.66572150000000","-73.91167140000000","[-73.9116714,40.6657215]",,,"93","77","52","67","14","18","38","49","19","1",,,,,,,,,,
"Frederick Douglass Academy VIII Middle School","K452","1916748","212","9041.2642","General Academic","Intermediate","1400 PENNSYLVANIA AVENUE","BROOKLYN","NY","11239","K","40.64683880000000","-73.88166100000000","[-73.881661,40.6468388]","EMS","B",,,,,,,,,,,"2.525","2","46","48","3","2.868","2","28","50","19"
"Gateway School for Environmental Research and Technology","X295","4243147","506","8385.6660","General Academic","High School","1980 LAFAYETTE AVENUE","BRONX","NY","10473","X","40.82232550000000","-73.85595690000000","[-73.8559569,40.8223255]",,,"88","41","38","92","0","0","38","92","38","13",,,,,,,,,,
"Gaynor McCown Expeditionary Learning School","R064","1997524","201","9937.9303","General Academic","High School","100 ESSEX DRIVE","STATEN ISLAND","NY","10314","R","40.58196900000000","-74.15935999999999","[-74.15935999999999,40.581969]",,,,,,,,,,,,,,,,,,,,,,
"General D. Chappie James Elementary School of Science","K631","4144489","459","9029.3878","General Academic","Elementary","76 RIVERDALE AVENUE","BROOKLYN","NY","11212","K","40.66018630000000","-73.91401100000000","[-73.914011,40.6601863]","EMS","D",,,,,,,,,,,"2.050","24","49","23","3","2.244","14","52","26","6"
"General D. Chappie James Middle School of Science","K634","2111548","208","10151.6731","General Academic","Intermediate","76 RIVERDALE AVENUE","BROOKLYN","NY","11212","K","40.66018630000000","-73.91401100000000","[-73.914011,40.6601863]","EMS","D",,,,,,,,,,,"1.828","30","56","13","0","1.798","36","50","10","3"
"George Washington Carver High School for the Sciences","Q272","3079923","436","7064.0436","General Academic","High School","143-10 SPRINGFIELD BOULEVARD","QUEENS","NY","11413","Q","40.66825890000000","-73.75689609999999","[-73.75689609999999,40.6682589]",,,"79","68","61","89","22","32","39","57","29","0",,,,,,,,,,
"George Westinghouse Career and Technical Education High School","K605","9827176","963","10204.7518","Career Technical","High School","105 JOHNSON STREET","BROOKLYN","NY","11201","K","40.69543800000000","-73.98609990000000","[-73.9860999,40.695438]",,,"169","60","14","24","4","7","10","17","25","9",,,,,,,,,,
"Global Enterprise High School","X541","3891890","467","8333.8116","General Academic","High School","925 ASTOR AVENUE","BRONX","NY","10469","X","40.85964000000000","-73.86074280000000","[-73.8607428,40.85964]",,,"110","52","6","12","0","0","6","12","28","11",,,,,,,,,,
"Global Neighborhood Secondary School","M381","2193212","152","14429.0263","General Academic","Intermediate","240 EAST 109 STREET","MANHATTAN","NY","10029","M","40.79269280000000","-73.94168800000000","[-73.941688,40.7926928]","EMS","C",,,,,,,,,,,"1.787","34","52","13","0","1.979","24","55","18","2"
"GLOBAL TECHNOLOGY PREPARATORY","M406","1043252","55","18968.2182","General Academic","Intermediate","160 EAST 120 STREET","MANHATTAN","NY","10035","M","40.80100540000000","-73.93972450000000","[-73.9397245,40.8010054]","EMS","None",,,,,,,,,,,"2.252","11","54","32","2","2.505","9","44","33","13"
"Globe School for Environmental Research","X272","3642817","485","7510.9629","General Academic","Intermediate","3710 BARNES AVENUE","BRONX","NY","10467","X","40.88063400000000","-73.86015499999999","[-73.86015499999999,40.880634]","EMS","D",,,,,,,,,,,"1.938","26","52","20","0","2.020","25","52","17","5"
"Goldie Maple Academy","Q333","4033211","539","7482.7662","General Academic","K-8","3-65 BEACH 56 STREET","QUEENS","NY","11692","Q","40.59398700000001","-73.78665200000000","[-73.786652,40.59398700000001]","EMS","C",,,,,,,,,,,"2.489","7","43","41","7","2.868","2","34","38","25"
"Gotham Professional Arts Academy","K594","1697421","211","8044.6493","General Academic","High School","265 RALPH AVENUE","BROOKLYN","NY","11233","K","40.68043390000000","-73.92222570000000","[-73.9222257,40.6804339]",,,,,,,,,,,,,,,,,,,,,,
"Grace Dodge Career and Technical Education High School","X660","12954722","1467","8830.7580","Career Technical","High School","2474 CROTONA AVENUE","BRONX","NY","10458","X","40.85608800000000","-73.88248850000000","[-73.8824885,40.856088]",,,"367","41","22","53","3","7","19","46","31","23",,,,,,,,,,
"Gramercy Arts High School","M374","3214748","400","8036.8700","General Academic","High School","40 IRVING PLACE","MANHATTAN","NY","10003","M","40.73538700000000","-73.98786390000000","[-73.9878639,40.735387]",,,"68","74","19","26","0","0","19","26","15","6",,,,,,,,,,
"GRANT AVENUE ELEMENTARY SCHOOL","X449","1576164","137","11504.8467","General Academic","Early Childhood","250 EAST 164 STREET","BRONX","NY","10456","X","40.82835360000000","-73.91724190000000","[-73.9172419,40.8283536]",,,,,,,,,,,,,,,,,,,,,,
"Green School: An Academy for Environmental Careers","K454","2761064","350","7888.7543","General Academic","High School","223 GRAHAM AVENUE","BROOKLYN","NY","11206","K","40.71035300000000","-73.94372299999999","[-73.94372299999999,40.710353]",,,"3","0","0","0","0","0","0","0","0","0",,,,,,,,,,
"Gregorio Luperon High School for Science and Mathematics","M552","4036724","486","8306.0165","General Academic","High School","501 WEST 165TH","MANHATTAN","NY","10032","M","40.83826540000000","-73.93855810000001","[-73.93855810000001,40.8382654]",,,"89","73","39","54","11","15","28","39","17","10",,,,,,,,,,
"Grover Cleveland High School","Q485","16056996","2664","6027.4009","General Academic","High School","21-27 HIMROD STREET","QUEENS","NY","11385","Q","40.71188700000000","-73.90920700000001","[-73.90920700000001,40.711887]",,,"807","51","25","50","8","17","17","33","25","20",,,,,,,,,,
"Hamilton Heights School","M368","1866866","233","8012.3004","General Academic","Elementary","1750 AMSTERDAM AVENUE","MANHATTAN","NY","10031","M","40.82638860000000","-73.94679339999999","[-73.94679339999999,40.8263886]","EMS","C",,,,,,,,,,,"2.191","19","46","30","4","2.383","13","48","25","13"
"Harbor Heights","M349","1625194","158","10286.0380","General Academic","Intermediate","306 FORT WASHINGTON AVENUE","MANHATTAN","NY","10033","M","40.84545700000000","-73.93977400000000","[-73.939774,40.845457]","EMS","A",,,,,,,,,,,"1.262","74","24","1","0","2.224","15","52","25","6"
"Harlem Renaissance High School","M285","2008222","225","8925.4311","Transfer School","High School","22 EAST 128 STREET","MANHATTAN","NY","10035","M","40.80783890000000","-73.93970320000000","[-73.9397032,40.8078389]","HST","C","85","8","1","14","0","0","1","14","59","28",,,,,,,,,,
"Harry S Truman High School","X455","13733967","2131","6444.8461","General Academic","High School","750 BAYCHESTER AVENUE","BRONX","NY","10475","X","40.87404000000000","-73.83168700000000","[-73.831687,40.87404]",,,"628","59","47","79","4","6","43","73","23","11",,,,,,,,,,
"Harvey Milk High School","M586","1431254","98","14604.6327","Transfer School","High School","2-10 ASTOR PLACE","MANHATTAN","NY","10003","M","40.72996230000000","-73.99223599999999","[-73.99223599999999,40.7299623]","HST","A","30","30","7","22","0","0","7","22","43","27",,,,,,,,,,
"Health Opportunities High School","X670","5096717","616","8273.8912","General Academic","High School","350 GERARD AVENUE","BRONX","NY","10451","X","40.81565240000000","-73.93044700000000","[-73.930447,40.8156524]",,,"126","67","47","70","8","12","39","58","18","9",,,,,,,,,,
"Henry Street School for International Studies","M292","4117002","511","8056.7554","General Academic","Secondary School","220 HENRY STREET","MANHATTAN","NY","10002","M","40.71348090000000","-73.98532120000002","[-73.98532120000002,40.7134809]","EMS","C","64","67","42","63","0","0","42","63","14","14","1.806","29","59","10","0","1.989","24","54","17","3"
"Herbert H. Lehman High School.","X405","25735595","4115","6254.0936","General Academic","High School","3000 EAST TREMONT AVENUE","BRONX","NY","10461","X","40.83998700000000","-73.83797700000000","[-73.837977,40.839987]",,,"1007","46","34","74","12","27","22","48","32","15",,,,,,,,,,
"Heritage School, The","M680","2824471","318","8881.9843","General Academic","High School","1680 LEXINGTON AVENUE","MANHATTAN","NY","10029","M","40.79196400000000","-73.94687800000000","[-73.946878,40.791964]",,,"84","55","33","61","4","7","30","54","37","8",,,,,,,,,,
"High School for Arts and Business","Q550","5824982","764","7624.3220","General Academic","High School","105-25 HORACE HARDING EXPY N","QUEENS","NY","11368","Q","40.73763700000000","-73.85340800000000","[-73.853408,40.737637]",,,"172","62","54","87","15","25","38","62","27","9",,,,,,,,,,
"High School for Arts, Imagination and Inquiry","M299","3709340","423","8769.1253","General Academic","High School","122 AMSTERDAM AVENUE","MANHATTAN","NY","10023","M","40.77482380000000","-73.98470130000000","[-73.9847013,40.7748238]",,,"99","46","37","82","0","0","37","82","39","11",,,,,,,,,,
"High School for Civil Rights","K504","3468255","443","7829.0181","General Academic","High School","400 PENNSYLVANIA AVENUE","BROOKLYN","NY","11207","K","40.66760120000000","-73.89479150000000","[-73.8947915,40.6676012]",,,"95","60","44","74","2","4","42","70","25","11",,,,,,,,,,
"High School for Construction Trades, Engineering and Architecture","Q650","5176101","837","6184.1111","Career Technical","High School","94-06 104TH STREET","QUEENS","NY","11416","Q","40.68918000000000","-73.84146100000000","[-73.841461,40.68918]",,,,,,,,,,,,,,,,,,,,,,
"High School for Contemporary Arts","X544","3760510","471","7984.0977","General Academic","High School","800 EAST GUN HILL ROAD","BRONX","NY","10467","X","40.87516300000000","-73.86165299999999","[-73.86165299999999,40.875163]",,,"116","72","57","80","10","15","47","65","25","3",,,,,,,,,,
"High School for Dual Language and Asian Studies","M545","3178395","324","9809.8611","General Academic","High School","350 GRAND STREET","MANHATTAN","NY","10002","M","40.71740050000000","-73.98961390000000","[-73.9896139,40.7174005]",,,"76","90","84","94","74","82","11","12","8","3",,,,,,,,,,
"High School for Environmental Studies","M400","8534403","1418","6018.6199","General Academic","High School","444 WEST 56 STREET","MANHATTAN","NY","10019","M","40.76799790000000","-73.98815250000000","[-73.9881525,40.7679979]",,,"344","70","56","79","20","28","36","51","22","4",,,,,,,,,,
"High School for Excellence and Innovation","M423","1513778","83","18238.2892","Transfer School","High School","650 ACADEMY STREET","MANHATTAN","NY","10034","M","40.86621640000000","-73.92492610000000","[-73.9249261,40.8662164]","HST","None",,,,,,,,,,,,,,,,,,,,
"High School for Health Careers and Sciences","M468","5643498","658","8576.7447","General Academic","High School","549 AUDUBON AVENUE","MANHATTAN","NY","10040","M","40.85650830000001","-73.92657899999999","[-73.92657899999999,40.85650830000001]",,,"162","67","41","62","12","18","30","44","17","10",,,,,,,,,,
"High School for Health Professions and Human Services","M420","9860142","1695","5817.1929","General Academic","High School","345 EAST 15TH STREET","MANHATTAN","NY","10003","M","40.73241700000000","-73.98276800000000","[-73.982768,40.732417]",,,"344","74","62","84","13","18","49","66","23","0",,,,,,,,,,
"High School for Innovation in Advertising and Media","K617","1500535","166","9039.3675","Career Technical","High School","1600 ROCKAWAY PARKWAY","BROOKLYN","NY","11236","K","40.64087520000000","-73.89804610000000","[-73.8980461,40.6408752]",,,,,,,,,,,,,,,,,,,,,,
"High School for Law and Public Service","M467","5479104","678","8081.2743","General Academic","High School","549 AUDUBON AVENUE","MANHATTAN","NY","10040","M","40.85650830000001","-73.92657899999999","[-73.92657899999999,40.85650830000001]",,,"150","75","55","73","11","15","43","58","21","1",,,,,,,,,,
"High School for Law Enforcement and Public Safety","Q690","3689119","565","6529.4142","General Academic","High School","116-25 GUY R BREWER BOULEVARD","QUEENS","NY","11434","Q","40.68608040000000","-73.78405230000000","[-73.7840523,40.6860804]",,,"104","74","60","81","7","9","53","71","22","2",,,,,,,,,,
"High School for Law, Advocacy and Community Justice","M492","4561354","470","9705.0085","General Academic","High School","122 AMSTERDAM AVENUE","MANHATTAN","NY","10023","M","40.77482380000000","-73.98470130000000","[-73.9847013,40.7748238]",,,"98","72","52","72","3","4","49","68","19","7",,,,,,,,,,
"High School for Mathematics, Science and Engineering at City College","M692","3998346","424","9430.0613","General Academic","High School","240 CONVENT AVE","MANHATTAN","NY","10031","M","40.82132410000000","-73.94883370000000","[-73.9488337,40.8213241]",,,"108","99","99","100","94","95","5","5","0","1",,,,,,,,,,
"High School for Media and Communications","M463","4714082","620","7603.3581","General Academic","High School","549 AUDUBON AVENUE","MANHATTAN","NY","10040","M","40.85650830000001","-73.92657899999999","[-73.92657899999999,40.85650830000001]",,,"148","57","32","57","5","10","27","48","29","9",,,,,,,,,,
"High School for Medical Professions","K633","1776434","233","7624.1803","General Academic","High School","1600 ROCKAWAY PARKWAY","BROOKLYN","NY","11236","K","40.64087520000000","-73.89804610000000","[-73.8980461,40.6408752]",,,,,,,,,,,,,,,,,,,,,,
"High School for Public Service: Heroes of Tomorrow","K546","2716520","387","7019.4315","General Academic","High School","600 KINGSTON AVENUE","BROOKLYN","NY","11203","K","40.65866500000000","-73.94383800000000","[-73.943838,40.658665]",,,"94","97","89","92","12","12","78","80","2","0",,,,,,,,,,
"High School for Service & Learning at Erasmus","K539","3523020","413","8530.3148","General Academic","High School","911 FLATBUSH AVENUE","BROOKLYN","NY","11226","K","40.64954100000000","-73.95850070000000","[-73.9585007,40.649541]",,,"111","78","58","74","12","15","46","59","11","9",,,,,,,,,,
"High School for Teaching and the Professions","X433","4278299","484","8839.4607","General Academic","High School","2780 RESERVOIR AVENUE","BRONX","NY","10468","X","40.87088010000000","-73.89775290000000","[-73.8977529,40.8708801]",,,"127","52","31","59","2","5","28","55","25","18",,,,,,,,,,
"High School for Violin and Dance","X543","2113426","212","9968.9906","General Academic","High School","1110 BOSTON ROAD","BRONX","NY","10456","X","40.82801480000000","-73.90402320000000","[-73.9040232,40.8280148]",,,"39","82","67","81","5","6","62","75","3","13",,,,,,,,,,
"High School for Youth and Community Development at Erasmus","K537","3661656","420","8718.2286","General Academic","High School","911 FLATBUSH AVENUE","BROOKLYN","NY","11226","K","40.64954100000000","-73.95850070000000","[-73.9585007,40.649541]",,,"118","43","19","43","0","0","19","43","31","22",,,,,,,,,,
"High School M560 - City As School","M560","5895578","728","8098.3214","Transfer School","High School","16 CLARKSON STREET","MANHATTAN","NY","10014","M","40.72916940000000","-74.00610650000000","[-74.0061065,40.7291694]","HST","B","198","37","29","77","0","0","29","77","58","2",,,,,,,,,,
"High School of American Studies at Lehman College","X696","2857324","352","8117.3977","General Academic","High School","2925 GOULDEN AVENUE","BRONX","NY","10468","X","40.87460000000000","-73.89509400000000","[-73.895094,40.8746]",,,"75","96","96","100","81","85","15","15","3","0",,,,,,,,,,
"High School of Applied Communication","Q267","2503191","360","6953.3083","General Academic","High School","30-20 THOMSON AVENUE","QUEENS","NY","11101","Q","40.74492380000000","-73.93693100000002","[-73.93693100000002,40.7449238]",,,"113","78","50","64","15","19","35","44","20","2",,,,,,,,,,
"High School of Arts and Technology","M494","4392624","593","7407.4604","General Academic","High School","122 AMSTERDAM AVENUE","MANHATTAN","NY","10023","M","40.77482380000000","-73.98470130000000","[-73.9847013,40.7748238]",,,"152","70","55","79","7","10","48","69","20","6",,,,,,,,,,
"High School of Computers and Technology","X275","4440824","541","8208.5471","Career Technical","High School","800 EAST GUN HILL ROAD","BRONX","NY","10467","X","40.87516300000000","-73.86165299999999","[-73.86165299999999,40.875163]",,,"95","79","56","71","1","1","55","69","19","1",,,,,,,,,,
"High School of Economics and Finance","M489","5944474","825","7205.4230","General Academic","High School","100 TRINITY PLACE","MANHATTAN","NY","10006","M","40.70897770000000","-74.01220169999999","[-74.01220169999999,40.7089777]",,,"134","70","55","79","17","25","38","54","16","11",,,,,,,,,,
"High School of Graphic Communication Arts","M625","13963880","1820","7672.4615","Career Technical","High School","439 WEST 49TH STREET","MANHATTAN","NY","10019","M","40.76361310000000","-73.99114820000000","[-73.9911482,40.7636131]",,,"366","43","22","52","1","2","22","50","24","27",,,,,,,,,,
"High School of Hospitality Management","M296","2685296","386","6956.7254","General Academic","High School","525 WEST 50TH STREET","MANHATTAN","NY","10019","M","40.76533840000000","-73.99310880000000","[-73.9931088,40.7653384]",,,"91","81","69","85","7","8","63","77","12","4",,,,,,,,,,
"High School of Sports Management","K348","2782035","348","7994.3534","General Academic","High School","2630 BENSON AVENUE","BROOKLYN","NY","11214","K","40.59301500000000","-73.98631499999999","[-73.98631499999999,40.593015]",,,"65","82","68","83","20","25","48","59","15","2",,,,,,,,,,
"High School of Telecommunication Arts and Technology","K485","8655610","1297","6673.5621","General Academic","High School","350 67 STREET","BROOKLYN","NY","11220","K","40.63718160000001","-74.02361200000000","[-74.023612,40.63718160000001]",,,"279","78","70","89","46","59","24","31","11","5",,,,,,,,,,
"High School of World Cultures","X550","2847506","318","8954.4214","General Academic","High School","1300 BOYNTON AVENUE","BRONX","NY","10472","X","40.83129100000000","-73.87883280000001","[-73.87883280000001,40.831291]",,,"91","66","45","68","7","10","39","58","28","2",,,,,,,,,,
"Hillcrest High School","Q505","19460744","3118","6241.4189","General Academic","High School","160-05 HIGHLAND AVENUE","QUEENS","NY","11432","Q","40.70903530000000","-73.80217510000000","[-73.8021751,40.7090353]",,,"869","62","37","60","6","10","31","49","22","13",,,,,,,,,,
"Holcombe L. Rucker School of Community Research","X332","2565201","347","7392.5101","General Academic","High School","965 LONGWOOD AVENUE","BRONX","NY","10459","X","40.81757310000000","-73.89800389999999","[-73.89800389999999,40.8175731]",,,"2","0","0","0","0","0","0","0","0","0",,,,,,,,,,
"Hostos-Lincoln Academy of Science","X500","3887113","560","6941.2732","General Academic","Secondary School","600 SAINT ANN'S AVENUE","BRONX","NY","10455","X","40.81432860000000","-73.91287799999999","[-73.91287799999999,40.8143286]","EMS","A","82","78","63","81","27","34","37","47","18","2","2.080","20","51","28","0","2.686","11","30","37","21"
"Humanities & Arts Magnet High School","Q498","3870946","475","8149.3600","General Academic","High School","207- 01 116TH AVENUE","QUEENS","NY","11411","Q","40.69879000000000","-73.74632600000000","[-73.746326,40.69879]",,,"107","77","61","79","6","7","55","72","14","4",,,,,,,,,,
"Humanities Preparatory Academy","M605","1777508","186","9556.4946","Transfer School","High School","351 WEST 18 STREET","MANHATTAN","NY","10011","M","40.74324100000000","-74.00301180000000","[-74.0030118,40.743241]","HST","B","35","60","57","95","9","14","49","81","26","11",,,,,,,,,,
"I. S. 381","K381","4000782","445","8990.5213","General Academic","Intermediate","1599 EAST 22 STREET","BROOKLYN","NY","11210","K","40.61111840000000","-73.95162030000000","[-73.9516203,40.6111184]","EMS","C",,,,,,,,,,,"2.424","5","50","41","3","2.575","5","46","34","14"
"I.S. 007 Elias Bernstein","R007","7971733","1159","6878.1130","General Academic","Intermediate","1270 HUGUENOT AVENUE","STATEN ISLAND","NY","10312","R","40.52408459999999","-74.18616089999999","[-74.18616089999999,40.52408459999999]","EMS","B",,,,,,,,,,,"2.707","4","30","56","9","3.262","2","16","35","46"
"I.S. 010 Horace Greeley","Q010","7039411","961","7325.0895","General Academic","Intermediate","45-11 31ST AVE","QUEENS","NY","11103","Q","40.76012100000000","-73.91196699999999","[-73.91196699999999,40.760121]","EMS","B",,,,,,,,,,,"2.363","13","42","39","5","2.810","6","33","35","26"
"I.S. 024 Myra S. Barnes","R024","11488365","1471","7809.9014","General Academic","Intermediate","225 CLEVELAND AVENUE","STATEN ISLAND","NY","10308","R","40.54521110000000","-74.14626609999999","[-74.14626609999999,40.5452111]","EMS","C",,,,,,,,,,,"2.616","4","38","49","8","3.020","3","24","40","32"
"I.S. 025 Adrien Block","Q025","6253655","830","7534.5241","General Academic","Intermediate","34-65 192 STREET","QUEENS","NY","11358","Q","40.76483430000000","-73.78971250000000","[-73.7897125,40.7648343]","EMS","B",,,,,,,,,,,"2.670","6","33","49","12","3.111","4","21","34","40"
"I.S. 027 Anning S. Prall","R027","9458973","1123","8422.9501","General Academic","Intermediate","11 CLOVE LAKE PLACE","STATEN ISLAND","NY","10310","R","40.62819000000000","-74.11702269999999","[-74.11702269999999,40.62819]","EMS","C",,,,,,,,,,,"2.262","16","46","32","5","2.545","13","38","29","19"
"I.S. 034 Tottenville","R034","7938835","1148","6915.3615","General Academic","Intermediate","528 ACADEMY AVENUE","STATEN ISLAND","NY","10307","R","40.50777100000000","-74.24361999999999","[-74.24361999999999,40.507771]","EMS","A",,,,,,,,,,,"2.663","4","34","51","9","3.111","3","21","37","38"
"I.S. 051 Edwin Markham","R051","8024905","1080","7430.4676","General Academic","Intermediate","20 HOUSTON STREET","STATEN ISLAND","NY","10302","R","40.62327200000000","-74.14553300000000","[-74.145533,40.623272]","EMS","B",,,,,,,,,,,"2.240","15","50","31","4","2.255","15","50","26","7"
"I.S. 059 Springfield Gardens","Q059","6318252","828","7630.7391","General Academic","Intermediate","132-55 RIDGEDALE STREET","QUEENS","NY","11413","Q","40.68138900000000","-73.75354800000000","[-73.753548,40.681389]","EMS","C",,,,,,,,,,,"2.161","16","53","28","2","2.360","14","46","30","10"
"I.S. 061 Leonardo Da Vinci","Q061","15179187","2082","7290.6758","General Academic","Intermediate","98-50 50 AVENUE","QUEENS","NY","11368","Q","40.74266370000000","-73.86330319999999","[-73.86330319999999,40.7426637]","EMS","B",,,,,,,,,,,"2.061","25","46","23","4","2.494","14","40","27","18"
"I.S. 061 William A Morris","R061","10440773","1329","7856.1121","General Academic","Intermediate","445 CASTLETON AVENUE","STATEN ISLAND","NY","10301","R","40.63452700000000","-74.09799199999999","[-74.09799199999999,40.634527]","EMS","C",,,,,,,,,,,"2.214","16","49","29","4","2.373","14","47","25","13"
"I.S. 068 Isaac Bildersee","K068","8438111","997","8463.5015","General Academic","Intermediate","956 EAST 82 STREET","BROOKLYN","NY","11236","K","40.63550470000000","-73.91074370000001","[-73.91074370000001,40.6355047]","EMS","C",,,,,,,,,,,"1.959","22","59","16","1","2.151","17","55","22","5"
"I.S. 072 Rocco Laurie","R072","12678488","1776","7138.7883","General Academic","Intermediate","33 FERNDALE AVENUE","STATEN ISLAND","NY","10314","R","40.59247040000000","-74.15853249999999","[-74.15853249999999,40.5924704]","EMS","B",,,,,,,,,,,"2.393","10","46","37","6","2.757","8","34","31","26"
"I.S. 075 Frank D. Paulo","R075","9190431","1280","7180.0242","General Academic","Intermediate","455 HUGUENOT AVENUE","STATEN ISLAND","NY","10312","R","40.54460500000000","-74.19700900000000","[-74.197009,40.544605]","EMS","B",,,,,,,,,,,"2.636","4","38","47","10","3.030","3","25","38","34"
"I.S. 077","Q077","8851018","1139","7770.8674","General Academic","Intermediate","976 SENECA AVENUE","QUEENS","NY","11385","Q","40.69955800000000","-73.90223080000000","[-73.9022308,40.699558]","EMS","B",,,,,,,,,,,"2.191","16","50","31","2","2.676","8","36","35","20"
"I.S. 093 Ridgewood","Q093","8925040","1309","6818.2124","General Academic","Intermediate","66-56 FOREST AVENUE","QUEENS","NY","11385","Q","40.70626740000000","-73.90274660000000","[-73.9027466,40.7062674]","EMS","B",,,,,,,,,,,"2.295","12","49","33","4","2.777","7","31","38","23"
"I.S. 096 Seth Low","K096","8265357","1003","8240.6351","General Academic","Intermediate","99 AVENUE P","BROOKLYN","NY","11204","K","40.60757400000000","-73.98445120000000","[-73.9844512,40.607574]","EMS","B",,,,,,,,,,,"2.191","16","51","29","3","2.591","11","36","33","18"
"I.S. 117 Joseph H. Wade","X117","7579368","802","9450.5835","General Academic","Intermediate","1865 MORRIS AVENUE","BRONX","NY","10453","X","40.84855320000000","-73.90843530000000","[-73.9084353,40.8485532]","EMS","B",,,,,,,,,,,"1.857","31","50","17","0","2.222","22","43","24","10"
"I.S. 119 The Glendale","Q119","6499889","1100","5908.9900","General Academic","Intermediate","74-01 78 AVENUE","QUEENS","NY","11385","Q","40.70519800000000","-73.87503300000000","[-73.875033,40.705198]","EMS","C",,,,,,,,,,,"2.591","8","35","44","11","2.939","7","27","30","35"
"I.S. 125 Thom J. McCann Woodside","Q125","10389731","1617","6425.3129","General Academic","Intermediate","46-02 47 AVENUE","QUEENS","NY","11377","Q","40.74108740000000","-73.91861800000000","[-73.918618,40.7410874]","EMS","B",,,,,,,,,,,"2.420","10","45","38","7","3.010","3","26","38","33"
"I.S. 136 Charles O. Dewey","K136","5388408","496","10863.7258","General Academic","Intermediate","4004 4 AVENUE","BROOKLYN","NY","11232","K","40.65207890000000","-74.00686999999999","[-74.00686999999999,40.6520789]","EMS","C",,,,,,,,,,,"1.826","29","57","12","0","2.010","24","55","17","4"
"I.S. 141 The Steinway","Q141","6524355","996","6550.5572","General Academic","Intermediate","37-11 21 AVENUE","QUEENS","NY","11105","Q","40.77576600000000","-73.90450299999999","[-73.90450299999999,40.775766]","EMS","A",,,,,,,,,,,"2.520","7","43","41","9","3.151","3","20","35","41"
"I.S. 145 Joseph Pulitzer","Q145","13293385","1961","6778.8807","General Academic","Intermediate","33-34 80 STREET","QUEENS","NY","11372","Q","40.75439000000000","-73.88751200000000","[-73.887512,40.75439]","EMS","B",,,,,,,,,,,"2.272","12","51","33","3","2.686","6","39","34","20"
"I.S. 171 Abraham Lincoln","K171","5964354","839","7108.8844","General Academic","Intermediate","528 RIDGEWOOD AVENUE","BROOKLYN","NY","11208","K","40.68584100000000","-73.86942900000000","[-73.869429,40.685841]","EMS","C",,,,,,,,,,,"2.101","20","52","24","3","2.316","15","48","24","11"
"I.S. 181 Pablo Casals","X181","4998762","592","8443.8547","General Academic","Intermediate","800 BAYCHESTER AVENUE","BRONX","NY","10475","X","40.87558450000000","-73.83377349999999","[-73.83377349999999,40.8755845]","EMS","B",,,,,,,,,,,"2.398","13","38","42","5","2.663","12","34","27","25"
"I.S. 192 The Linden","Q192","5761110","746","7722.6676","General Academic","Intermediate","109-89 204 STREET","QUEENS","NY","11412","Q","40.70676420000000","-73.75379620000000","[-73.7537962,40.7067642]","EMS","B",,,,,,,,,,,"2.040","21","54","23","1","2.131","18","55","21","5"
"I.S. 195 Roberto Clemente","M195","6741023","552","12211.9982","General Academic","Intermediate","625 WEST 133 STREET","MANHATTAN","NY","10027","M","40.81959459999999","-73.95732749999999","[-73.95732749999999,40.81959459999999]","EMS","D",,,,,,,,,,,"1.818","33","52","13","1","1.949","25","57","12","4"
"I.S. 204 Oliver W. Holmes","Q204","6670429","756","8823.3188","General Academic","Intermediate","36-41 28 STREET","QUEENS","NY","11106","Q","40.75715240000000","-73.93241239999999","[-73.93241239999999,40.7571524]","EMS","A",,,,,,,,,,,"2.222","17","46","33","3","2.585","10","41","28","20"
"I.S. 206 Ann Mersereau","X206","3856788","390","9889.2000","General Academic","Intermediate","2280 AQUEDUCT AVENUE","BRONX","NY","10468","X","40.85986810000000","-73.90631720000000","[-73.9063172,40.8598681]","EMS","B",,,,,,,,,,,"1.938","28","50","18","2","2.428","12","44","30","12"
"I.S. 211 John Wilson","K211","7603168","821","9260.8624","General Academic","Intermediate","1001 EAST 100 STREET","BROOKLYN","NY","11236","K","40.64350420000000","-73.89647040000000","[-73.8964704,40.6435042]","EMS","B",,,,,,,,,,,"2.144","14","56","26","1","2.479","12","41","31","14"
"I.S. 218 Salome Urena","M218","4152460","368","11283.8587","General Academic","Intermediate","4600 BROADWAY","MANHATTAN","NY","10040","M","40.86094500000000","-73.93007290000000","[-73.9300729,40.860945]","EMS","B",,,,,,,,,,,"1.909","27","56","14","2","2.000","21","58","17","2"
"I.S. 219 New Venture School","X219","5007817","473","10587.3510","General Academic","Intermediate","3630 THIRD AVENUE","BRONX","NY","10456","X","40.83410000000000","-73.90407830000000","[-73.9040783,40.8341]","EMS","B",,,,,,,,,,,"1.888","28","55","15","1","2.051","24","49","21","4"
"I.S. 227 Louis Armstrong","Q227","10831721","1483","7303.9252","General Academic","Intermediate","32-02 JUNCTION BOULEVARD","QUEENS","NY","11369","Q","40.75756600000000","-73.87457300000000","[-73.874573,40.757566]","EMS","A",,,,,,,,,,,"2.767","2","29","58","10","3.282","1","14","40","44"
"I.S. 228 David A. Boody","K228","7043842","872","8077.8005","General Academic","Intermediate","228 AVENUE S","BROOKLYN","NY","11223","K","40.60130210000000","-73.97700540000000","[-73.9770054,40.6013021]","EMS","C",,,,,,,,,,,"2.393","12","42","39","6","2.777","10","29","33","27"
"I.S. 229 Roland Patterson","X229","5101250","335","15227.6119","General Academic","Intermediate","275 HARLEM RIVER PARK BRIDGE","BRONX","NY","10453","X","40.84156260000000","-73.92960450000000","[-73.9296045,40.8415626]","EMS","B",,,,,,,,,,,"1.878","31","50","17","1","2.040","28","44","22","5"
"I.S. 230","Q230","7416947","945","7848.6212","General Academic","Intermediate","73-10 34 AVENUE","QUEENS","NY","11372","Q","40.75284280000000","-73.89291330000000","[-73.8929133,40.7528428]","EMS","A",,,,,,,,,,,"2.494","9","39","44","7","2.949","6","26","34","33"
"I.S. 232","X232","4293421","428","10031.3575","General Academic","Intermediate","1700 MACOMBS ROAD","BRONX","NY","10453","X","40.84972350000000","-73.91575689999999","[-73.91575689999999,40.8497235]","EMS","A",,,,,,,,,,,"1.887","25","59","14","0","2.191","18","48","29","4"
"I.S. 237","Q237","9059076","1160","7809.5483","General Academic","Intermediate","46-21 COLDEN STREET","QUEENS","NY","11355","Q","40.74942990000000","-73.82141000000000","[-73.82141,40.7494299]","EMS","A",,,,,,,,,,,"2.418","14","37","39","8","2.980","7","23","35","35"
"I.S. 238 - Susan B. Anthony Academy","Q238","11177398","1629","6861.5089","General Academic","Intermediate","88-15 182 STREET","QUEENS","NY","11423","Q","40.71161379999999","-73.77997140000000","[-73.7799714,40.71161379999999]","EMS","C",,,,,,,,,,,"2.234","14","49","33","2","2.510","13","39","29","17"
"I.S. 250 The Robert F. Kennedy Community Middle School","Q250","3355949","392","8561.0944","General Academic","Intermediate","158-40 76 ROAD","QUEENS","NY","11366","Q","40.72419100000000","-73.80937000000000","[-73.80937,40.724191]","EMS","C",,,,,,,,,,,"2.393","10","47","35","7","2.693","8","36","32","22"
"I.S. 254","X254","4555031","458","9945.4825","General Academic","Intermediate","2452 WASHINGTON AVENUE","BRONX","NY","10458","X","40.85896980000000","-73.89008050000000","[-73.8900805,40.8589698]","EMS","A",,,,,,,,,,,"1.969","22","58","17","1","2.525","12","41","28","18"
"I.S. 281 Joseph B Cavallaro","K281","9645285","1325","7279.4604","General Academic","Intermediate","8787 24 AVENUE","BROOKLYN","NY","11214","K","40.59555510000000","-73.99322040000000","[-73.9932204,40.5955551]","EMS","B",,,,,,,,,,,"2.377","12","43","37","6","3.010","5","25","34","36"
"I.S. 285 Meyer Levin","K285","7255388","983","7380.8627","General Academic","Intermediate","5909 BEVERLY ROAD","BROOKLYN","NY","11203","K","40.64712400000000","-73.92054300000000","[-73.920543,40.647124]","EMS","C",,,,,,,,,,,"2.260","12","52","34","2","2.333","13","47","32","7"
"I.S. 289","M289","2001548","298","6716.6040","General Academic","Intermediate","201 WARREN STREET","MANHATTAN","NY","10282","M","40.71658760000000","-74.01350640000000","[-74.0135064,40.7165876]","EMS","B",,,,,,,,,,,"2.929","2","21","58","18","3.222","3","14","40","42"
"I.S. 296 - The Anna Gonzalez Community School","K296","5379405","552","9745.2989","General Academic","Intermediate","125 COVERT STREET","BROOKLYN","NY","11207","K","40.68878570000000","-73.91003080000000","[-73.9100308,40.6887857]","EMS","C",,,,,,,,,,,"1.818","31","55","13","0","1.938","26","54","16","2"
"I.S. 303 Herbert S. Eisenberg","K303","6016263","746","8064.6957","General Academic","Intermediate","501 WEST AVENUE","BROOKLYN","NY","11224","K","40.58217220000000","-73.97239640000000","[-73.9723964,40.5821722]","EMS","B",,,,,,,,,,,"2.414","10","42","43","4","3.030","3","27","34","36"
"I.S. 313 School of Leadership Development","X313","3888763","432","9001.7662","General Academic","Intermediate","1600 WEBSTER AVENUE","BRONX","NY","10457","X","40.84052300000000","-73.90434300000000","[-73.904343,40.840523]","EMS","B",,,,,,,,,,,"1.919","27","54","17","1","2.193","16","51","27","4"
"I.S. 318 Eugenio Maria De Hostos","K318","10336873","1613","6408.4768","General Academic","Intermediate","101 WALTON STREET","BROOKLYN","NY","11206","K","40.70302560000000","-73.94825089999999","[-73.94825089999999,40.7030256]","EMS","C",,,,,,,,,,,"2.510","6","44","43","7","2.860","5","30","39","26"
"I.S. 339","X339","8221096","805","10212.5416","General Academic","Intermediate","1600 WEBSTER AVENUE","BRONX","NY","10457","X","40.84052300000000","-73.90434300000000","[-73.904343,40.840523]","EMS","B",,,,,,,,,,,"1.836","29","56","13","0","1.959","26","54","16","3"
"I.S. 340","K340","2215129","284","7799.7500","General Academic","Intermediate","227 STERLING PLACE","BROOKLYN","NY","11238","K","40.67592960000000","-73.96954120000000","[-73.9695412,40.6759296]","EMS","B",,,,,,,,,,,"2.606","3","37","55","4","2.878","5","25","46","23"
"I.S. 347 School of Humanities","K347","5466308","542","10085.4391","General Academic","Intermediate","35 STARR STREET","BROOKLYN","NY","11221","K","40.70090039999999","-73.92728629999999","[-73.92728629999999,40.70090039999999]","EMS","C",,,,,,,,,,,"2.000","23","55","19","2","2.438","16","40","25","17"
"I.S. 349 Math, Science & Tech.","K349","5551024","518","10716.2625","General Academic","Intermediate","35 STARR STREET","BROOKLYN","NY","11221","K","40.70090039999999","-73.92728629999999","[-73.92728629999999,40.70090039999999]","EMS","C",,,,,,,,,,,"1.959","26","52","20","1","2.438","13","43","28","14"
"I.S. 364 Gateway","K364","3212532","399","8051.4586","General Academic","Intermediate","1426 FREEPORT LOOP","BROOKLYN","NY","11239","K","40.64647080000000","-73.88113179999999","[-73.88113179999999,40.6464708]","EMS","B",,,,,,,,,,,"2.343","9","49","39","2","2.666","5","40","37","17"
"I.S. 392","K392","1919411","325","5905.8800","General Academic","Intermediate","104 SUTTER AVENUE","BROOKLYN","NY","11212","K","40.66595120000000","-73.91813320000000","[-73.9181332,40.6659512]","EMS","B",,,,,,,,,,,"2.989","0","13","72","12","3.404","0","6","47","46"
"I.S. 49 Berta A. Dreyfus","R049","7847090","886","8856.7607","General Academic","Intermediate","101 WARREN STREET","STATEN ISLAND","NY","10304","R","40.62044100000000","-74.08072200000000","[-74.080722,40.620441]","EMS","B",,,,,,,,,,,"1.969","27","49","22","1","2.200","22","46","22","10"
